# 
# Header Description:
# 
# Version: v3.0.0.0 Platform: 8.0.0 Manufacturer: samsung Model: SM-G930F
# 
# Raw,utcTimeMillis,TimeNanos,LeapSecond,TimeUncertaintyNanos,FullBiasNanos,BiasNanos,BiasUncertaintyNanos,DriftNanosPerSecond,DriftUncertaintyNanosPerSecond,HardwareClockDiscontinuityCount,Svid,TimeOffsetNanos,State,ReceivedSvTimeNanos,ReceivedSvTimeUncertaintyNanos,Cn0DbHz,PseudorangeRateMetersPerSecond,PseudorangeRateUncertaintyMetersPerSecond,AccumulatedDeltaRangeState,AccumulatedDeltaRangeMeters,AccumulatedDeltaRangeUncertaintyMeters,CarrierFrequencyHz,CarrierCycles,CarrierPhase,CarrierPhaseUncertainty,MultipathIndicator,SnrInDb,ConstellationType,AgcDb,BasebandCn0DbHz,FullInterSignalBiasNanos,FullInterSignalBiasUncertaintyNanos,SatelliteInterSignalBiasNanos,SatelliteInterSignalBiasUncertaintyNanos,CodeType,ChipsetElapsedRealtimeNanos
# 
# UncalAccel,utcTimeMillis,elapsedRealtimeNanos,UncalAccelXMps2,UncalAccelYMps2,UncalAccelZMps2,BiasXMps2,BiasYMps2,BiasZMps2
# 
# UncalGyro,utcTimeMillis,elapsedRealtimeNanos,UncalGyroXRadPerSec,UncalGyroYRadPerSec,UncalGyroZRadPerSec,DriftXRadPerSec,DriftYRadPerSec,DriftZRadPerSec
# 
# UncalMag,utcTimeMillis,elapsedRealtimeNanos,UncalMagXMicroT,UncalMagYMicroT,UncalMagZMicroT,BiasXMicroT,BiasYMicroT,BiasZMicroT
# 
# OrientationDeg,utcTimeMillis,elapsedRealtimeNanos,yawDeg,rollDeg,pitchDeg
# 
# Fix,Provider,LatitudeDegrees,LongitudeDegrees,AltitudeMeters,SpeedMps,AccuracyMeters,BearingDegrees,UnixTimeMillis,SpeedAccuracyMps,BearingAccuracyDegrees,elapsedRealtimeNanos
# 
# Nav,Svid,Type,Status,MessageId,Sub-messageId,Data(Bytes)
# 
# Status,UnixTimeMillis,SignalCount,SignalIndex,ConstellationType,Svid,CarrierFrequencyHz,Cn0DbHz,AzimuthDegrees,ElevationDegrees,UsedInFix,HasAlmanacData,HasEphemerisData,BasebandCn0DbHz
# 
OrientationDeg,1612046831380,245945758941957,301,-1,-25
OrientationDeg,1612046831390,245945768939523,301,-1,-26
OrientationDeg,1612046831400,245945778937056,301,-1,-26
OrientationDeg,1612046831410,245945788934622,301,-1,-26
OrientationDeg,1612046831420,245945798932188,301,-1,-26
OrientationDeg,1612046831430,245945808929754,301,-1,-26
OrientationDeg,1612046831440,245945818927320,301,-1,-26
OrientationDeg,1612046831449,245945828924853,301,-1,-26
OrientationDeg,1612046831460,245945838922419,301,-1,-26
OrientationDeg,1612046831470,245945848919952,301,-1,-26
OrientationDeg,1612046831480,245945858917518,301,-1,-26
OrientationDeg,1612046831490,245945868915084,301,-1,-26
OrientationDeg,1612046831499,245945878912650,301,-1,-26
OrientationDeg,1612046831510,245945888910216,301,-1,-26
OrientationDeg,1612046831520,245945898907782,301,-1,-26
OrientationDeg,1612046831530,245945908905348,301,-1,-26
OrientationDeg,1612046831540,245945918902881,301,-1,-26
OrientationDeg,1612046831550,245945928900447,301,-1,-26
OrientationDeg,1612046831560,245945938897980,301,-1,-26
OrientationDeg,1612046831570,245945948895546,301,-1,-25
OrientationDeg,1612046831580,245945958893112,301,-1,-25
OrientationDeg,1612046831590,245945968890678,301,-1,-25
OrientationDeg,1612046831600,245945978888244,301,-1,-25
OrientationDeg,1612046831610,245945988885810,301,-1,-25
OrientationDeg,1612046831619,245945998883410,301,-1,-25
OrientationDeg,1612046831630,245946008880943,301,-1,-25
OrientationDeg,1612046831640,245946018878509,301,-1,-25
OrientationDeg,1612046831650,245946028876042,301,-1,-25
OrientationDeg,1612046831660,245946038873608,301,-1,-25
OrientationDeg,1612046831670,245946048871174,301,-1,-25
OrientationDeg,1612046831680,245946058868740,301,-1,-25
OrientationDeg,1612046831690,245946068866306,301,-1,-25
OrientationDeg,1612046831700,245946078863972,301,-1,-25
OrientationDeg,1612046831710,245946088861538,301,-1,-25
OrientationDeg,1612046831720,245946098858338,301,-1,-25
OrientationDeg,1612046831730,245946108855904,301,-1,-25
OrientationDeg,1612046831740,245946118853437,301,-1,-25
OrientationDeg,1612046831750,245946128851003,301,-1,-25
OrientationDeg,1612046831760,245946138881869,301,-1,-26
OrientationDeg,1612046831770,245946148912769,301,-1,-26
OrientationDeg,1612046831780,245946158943635,301,-1,-25
OrientationDeg,1612046831790,245946168974501,301,-1,-25
OrientationDeg,1612046831801,245946179005401,301,-1,-25
OrientationDeg,1612046831811,245946189036267,301,-1,-25
OrientationDeg,1612046831820,245946199067167,301,-1,-25
OrientationDeg,1612046831831,245946209098033,301,-1,-25
OrientationDeg,1612046831841,245946219128933,301,-1,-25
OrientationDeg,1612046831851,245946229159799,301,-1,-25
OrientationDeg,1612046831861,245946239190699,301,-1,-25
OrientationDeg,1612046831871,245946249221599,301,-1,-25
OrientationDeg,1612046831881,245946259252465,301,-1,-25
OrientationDeg,1612046831891,245946269283365,301,-1,-25
OrientationDeg,1612046831901,245946279314231,301,-1,-25
OrientationDeg,1612046831911,245946289345131,301,-1,-25
OrientationDeg,1612046831921,245946299375964,301,-1,-25
OrientationDeg,1612046831931,245946309406864,301,-1,-25
OrientationDeg,1612046831941,245946319437730,301,-1,-25
OrientationDeg,1612046831951,245946329468630,301,-1,-25
OrientationDeg,1612046831961,245946339499530,301,-1,-25
OrientationDeg,1612046831971,245946349530396,301,-1,-25
OrientationDeg,1612046831981,245946359561296,301,-1,-25
OrientationDeg,1612046831991,245946369592162,301,-1,-25
OrientationDeg,1612046832001,245946379622962,301,-1,-25
OrientationDeg,1612046832011,245946389653828,301,-1,-25
OrientationDeg,1612046832021,245946399685461,301,-1,-25
OrientationDeg,1612046832031,245946409716327,301,-1,-25
OrientationDeg,1612046832041,245946419747227,301,-1,-25
OrientationDeg,1612046832051,245946429778127,301,-1,-25
OrientationDeg,1612046832061,245946439775693,301,-1,-25
OrientationDeg,1612046832071,245946449773259,301,-1,-25
OrientationDeg,1612046832081,245946459770825,301,-1,-25
OrientationDeg,1612046832091,245946469768391,301,-1,-25
OrientationDeg,1612046832101,245946479765924,301,-1,-25
OrientationDeg,1612046832111,245946489763490,301,-1,-25
OrientationDeg,1612046832121,245946499761023,301,-1,-25
OrientationDeg,1612046832131,245946509758589,301,-1,-25
OrientationDeg,1612046832141,245946519756155,301,-1,-25
OrientationDeg,1612046832151,245946529753788,301,-1,-25
OrientationDeg,1612046832160,245946539751354,301,-1,-25
OrientationDeg,1612046832171,245946549748920,301,-1,-25
OrientationDeg,1612046832181,245946559746486,301,-1,-25
OrientationDeg,1612046832191,245946569744019,301,-1,-25
OrientationDeg,1612046832201,245946579741585,301,-1,-25
OrientationDeg,1612046832211,245946589739118,301,-1,-25
OrientationDeg,1612046832221,245946599736684,301,-1,-25
OrientationDeg,1612046832231,245946609734250,301,-1,-25
OrientationDeg,1612046832241,245946619731816,301,-1,-25
OrientationDeg,1612046832251,245946629729382,301,-1,-25
OrientationDeg,1612046832261,245946639726915,301,-1,-25
OrientationDeg,1612046832271,245946649724481,301,-1,-25
OrientationDeg,1612046832281,245946659722014,301,-1,-25
OrientationDeg,1612046832291,245946669719580,301,-1,-25
OrientationDeg,1612046832301,245946679717146,301,-1,-25
OrientationDeg,1612046832311,245946689714712,301,-1,-25
OrientationDeg,1612046832321,245946699712278,301,-1,-25
OrientationDeg,1612046832331,245946709709844,301,-1,-25
OrientationDeg,1612046832341,245946719707410,301,-1,-25
OrientationDeg,1612046832351,245946729704976,301,-1,-25
OrientationDeg,1612046832360,245946739702542,301,-1,-25
OrientationDeg,1612046832371,245946749700075,301,-1,-25
OrientationDeg,1612046832381,245946759697641,301,-1,-25
OrientationDeg,1612046832391,245946769695207,301,-1,-25
OrientationDeg,1612046832401,245946779692773,301,-1,-25
OrientationDeg,1612046832410,245946789690339,301,-1,-25
OrientationDeg,1612046832421,245946799687905,301,-1,-25
OrientationDeg,1612046832431,245946809685471,301,-1,-25
OrientationDeg,1612046832441,245946819683004,301,-1,-25
OrientationDeg,1612046832451,245946829680504,301,-1,-25
OrientationDeg,1612046832461,245946839678037,301,-1,-25
OrientationDeg,1612046832471,245946849675570,301,-1,-25
OrientationDeg,1612046832481,245946859673136,301,-1,-25
OrientationDeg,1612046832491,245946869670702,301,-1,-25
OrientationDeg,1612046832501,245946879668268,301,-1,-25
OrientationDeg,1612046832511,245946889665834,301,-1,-25
OrientationDeg,1612046832520,245946899663400,301,-1,-25
OrientationDeg,1612046832531,245946909660933,301,-1,-25
OrientationDeg,1612046832541,245946919658566,301,-1,-25
OrientationDeg,1612046832551,245946929656099,301,-1,-25
OrientationDeg,1612046832561,245946939653665,301,-1,-25
OrientationDeg,1612046832571,245946949651231,301,-1,-25
OrientationDeg,1612046832581,245946959648797,301,-1,-25
OrientationDeg,1612046832591,245946969646363,301,-1,-25
OrientationDeg,1612046832601,245946979643896,301,-1,-25
OrientationDeg,1612046832611,245946989641462,301,-1,-25
OrientationDeg,1612046832621,245946999638995,301,-1,-25
OrientationDeg,1612046832631,245947009636561,301,-1,-25
OrientationDeg,1612046832641,245947019634127,301,-1,-25
OrientationDeg,1612046832651,245947029631660,301,-1,-25
OrientationDeg,1612046832661,245947039629226,301,-1,-25
OrientationDeg,1612046832671,245947049626792,301,-1,-25
OrientationDeg,1612046832681,245947059624358,301,-1,-25
OrientationDeg,1612046832691,245947069621891,301,-1,-25
OrientationDeg,1612046832701,245947079619457,301,-1,-25
OrientationDeg,1612046832710,245947089616990,301,-1,-25
OrientationDeg,1612046832721,245947099614556,301,-1,-25
OrientationDeg,1612046832731,245947109612122,301,-1,-25
OrientationDeg,1612046832741,245947119609688,301,-1,-25
OrientationDeg,1612046832751,245947129607254,301,-1,-25
OrientationDeg,1612046832761,245947139604820,301,-1,-25
OrientationDeg,1612046832771,245947149602386,301,-1,-25
OrientationDeg,1612046832781,245947159599919,301,-1,-25
OrientationDeg,1612046832791,245947169597485,301,-1,-25
OrientationDeg,1612046832800,245947179595018,301,-1,-25
OrientationDeg,1612046832811,245947189592584,301,-1,-25
OrientationDeg,1612046832821,245947199590150,301,-1,-25
OrientationDeg,1612046832831,245947209587716,301,-1,-25
OrientationDeg,1612046832841,245947219585216,301,-1,-25
OrientationDeg,1612046832851,245947229582782,301,-1,-25
OrientationDeg,1612046832861,245947239580348,301,-1,-25
OrientationDeg,1612046832871,245947249577881,301,-1,-25
OrientationDeg,1612046832881,245947259575447,301,-1,-25
OrientationDeg,1612046832891,245947269572980,301,-1,-25
OrientationDeg,1612046832901,245947279570613,301,-1,-25
OrientationDeg,1612046832911,245947289568179,301,-1,-25
OrientationDeg,1612046832921,245947299565745,301,-1,-25
OrientationDeg,1612046832931,245947309563311,301,-1,-25
OrientationDeg,1612046832941,245947319560844,301,-1,-25
OrientationDeg,1612046832951,245947329558410,301,-1,-25
OrientationDeg,1612046832961,245947339555943,301,-1,-25
OrientationDeg,1612046832971,245947349553509,301,-1,-25
OrientationDeg,1612046832981,245947359551075,301,-1,-25
OrientationDeg,1612046832991,245947369548641,301,-1,-25
OrientationDeg,1612046833001,245947379546207,301,-1,-25
OrientationDeg,1612046833011,245947389543773,301,-1,-25
OrientationDeg,1612046833021,245947399541339,301,-1,-25
OrientationDeg,1612046833031,245947409538872,301,-1,-25
OrientationDeg,1612046833040,245947419536438,301,-1,-25
OrientationDeg,1612046833050,245947429533971,301,-1,-25
OrientationDeg,1612046833061,245947439531537,301,-1,-25
OrientationDeg,1612046833071,245947449529103,301,-1,-25
OrientationDeg,1612046833081,245947459526669,301,-1,-25
OrientationDeg,1612046833091,245947469524235,301,-1,-25
OrientationDeg,1612046833101,245947479521801,301,-1,-25
OrientationDeg,1612046833110,245947489519367,301,-1,-25
OrientationDeg,1612046833121,245947499516900,301,-1,-25
OrientationDeg,1612046833131,245947509514466,301,-1,-25
OrientationDeg,1612046833141,245947519511999,301,-1,-25
OrientationDeg,1612046833151,245947529509565,301,-1,-25
OrientationDeg,1612046833160,245947539507131,301,-1,-25
OrientationDeg,1612046833171,245947549504697,301,-1,-25
OrientationDeg,1612046833180,245947559502263,301,-1,-25
OrientationDeg,1612046833191,245947569499863,301,-1,-25
OrientationDeg,1612046833201,245947579497363,301,-1,-25
OrientationDeg,1612046833211,245947589494896,301,-1,-25
OrientationDeg,1612046833221,245947599492462,301,-1,-25
OrientationDeg,1612046833231,245947609489995,301,-1,-25
OrientationDeg,1612046833241,245947619487561,301,-1,-25
OrientationDeg,1612046833251,245947629485127,301,-1,-25
OrientationDeg,1612046833261,245947639482693,301,-1,-25
OrientationDeg,1612046833271,245947649480259,301,-1,-25
OrientationDeg,1612046833281,245947659477792,301,-1,-25
OrientationDeg,1612046833291,245947669475358,301,-1,-25
OrientationDeg,1612046833301,245947679472891,301,-1,-25
OrientationDeg,1612046833311,245947689470457,301,-1,-25
OrientationDeg,1612046833321,245947699468023,301,-1,-25
OrientationDeg,1612046833331,245947709465623,301,-1,-25
OrientationDeg,1612046833340,245947719463189,301,-1,-25
OrientationDeg,1612046833351,245947729460755,301,-1,-25
OrientationDeg,1612046833361,245947739458321,301,-1,-25
OrientationDeg,1612046833371,245947749455854,301,-1,-25
OrientationDeg,1612046833381,245947759453487,301,-1,-25
OrientationDeg,1612046833391,245947769451020,301,-1,-25
OrientationDeg,1612046833401,245947779448586,301,-1,-25
OrientationDeg,1612046833411,245947789446152,301,-1,-25
OrientationDeg,1612046833421,245947799443718,301,-1,-25
OrientationDeg,1612046833431,245947809441284,301,-1,-25
OrientationDeg,1612046833441,245947819438850,301,-1,-25
OrientationDeg,1612046833451,245947829436416,301,-1,-25
OrientationDeg,1612046833461,245947839433949,301,-1,-25
OrientationDeg,1612046833471,245947849431515,301,-1,-25
OrientationDeg,1612046833481,245947859429048,301,-1,-25
OrientationDeg,1612046833491,245947869426581,301,-1,-25
OrientationDeg,1612046833501,245947879424147,301,-1,-25
OrientationDeg,1612046833511,245947889421713,301,-1,-25
OrientationDeg,1612046833521,245947899419279,301,-1,-25
OrientationDeg,1612046833531,245947909416879,301,-1,-25
OrientationDeg,1612046833541,245947919414445,301,-1,-25
OrientationDeg,1612046833551,245947929411978,301,-1,-25
OrientationDeg,1612046833561,245947939409544,301,-1,-25
OrientationDeg,1612046833571,245947949407077,301,-1,-25
OrientationDeg,1612046833581,245947959404643,301,-1,-25
OrientationDeg,1612046833591,245947969402209,301,-1,-25
OrientationDeg,1612046833601,245947979399775,301,-1,-25
OrientationDeg,1612046833611,245947989397341,301,-1,-25
OrientationDeg,1612046833621,245947999394874,301,-1,-25
OrientationDeg,1612046833631,245948009392407,301,-1,-25
OrientationDeg,1612046833641,245948019389940,301,-1,-25
OrientationDeg,1612046833651,245948029387506,301,-1,-25
OrientationDeg,1612046833661,245948039385039,301,-1,-25
OrientationDeg,1612046833671,245948049382605,301,-1,-25
OrientationDeg,1612046833681,245948059380105,301,-1,-25
OrientationDeg,1612046833690,245948069377671,301,-1,-25
OrientationDeg,1612046833701,245948079375237,301,-1,-25
OrientationDeg,1612046833711,245948089372803,301,-1,-25
OrientationDeg,1612046833721,245948099370369,301,-1,-25
OrientationDeg,1612046833731,245948109367902,301,-1,-25
OrientationDeg,1612046833741,245948119365468,301,-1,-25
OrientationDeg,1612046833751,245948129363034,301,-1,-25
OrientationDeg,1612046833761,245948139360600,301,-1,-25
OrientationDeg,1612046833771,245948149358166,301,-1,-25
OrientationDeg,1612046833780,245948159355732,301,-1,-25
OrientationDeg,1612046833791,245948169353398,301,-1,-25
OrientationDeg,1612046833801,245948179350931,301,-1,-25
OrientationDeg,1612046833811,245948189348497,301,-1,-25
OrientationDeg,1612046833820,245948199346030,301,-1,-25
OrientationDeg,1612046833831,245948209343563,301,-1,-25
OrientationDeg,1612046833841,245948219341129,301,-1,-25
OrientationDeg,1612046833851,245948229338695,301,-1,-25
OrientationDeg,1612046833861,245948239336128,301,-1,-25
OrientationDeg,1612046833871,245948249333694,301,-1,-25
OrientationDeg,1612046833881,245948259331260,301,-1,-25
OrientationDeg,1612046833891,245948269328793,301,-1,-25
OrientationDeg,1612046833901,245948279326359,301,-1,-25
OrientationDeg,1612046833911,245948289323892,301,-1,-25
OrientationDeg,1612046833921,245948299321458,301,-1,-25
OrientationDeg,1612046833931,245948309319024,301,-1,-25
OrientationDeg,1612046833940,245948319316590,301,-1,-25
OrientationDeg,1612046833951,245948329314156,301,-1,-25
OrientationDeg,1612046833961,245948339311722,301,-1,-25
OrientationDeg,1612046833971,245948349309288,301,-1,-25
OrientationDeg,1612046833981,245948359306821,301,-1,-25
OrientationDeg,1612046833990,245948369304387,301,-1,-25
OrientationDeg,1612046834001,245948379335253,301,-1,-25
OrientationDeg,1612046834011,245948389366119,301,-1,-25
OrientationDeg,1612046834021,245948399396985,301,-1,-25
OrientationDeg,1612046834031,245948409461218,301,-1,-25
OrientationDeg,1612046834041,245948419525418,301,-1,-25
OrientationDeg,1612046834051,245948429589618,301,-1,-25
OrientationDeg,1612046834061,245948439653818,301,-1,-25
OrientationDeg,1612046834070,245948449718018,301,-1,-25
OrientationDeg,1612046834081,245948459782218,301,-1,-25
OrientationDeg,1612046834091,245948469846318,301,-1,-25
OrientationDeg,1612046834101,245948479910551,301,-1,-25
OrientationDeg,1612046834111,245948489974751,301,-1,-25
OrientationDeg,1612046834122,245948500038984,301,-1,-25
OrientationDeg,1612046834131,245948510103184,301,-1,-25
OrientationDeg,1612046834142,245948520167384,301,-1,-25
OrientationDeg,1612046834152,245948530231584,301,-1,-25
OrientationDeg,1612046834162,245948540295917,301,-1,-25
OrientationDeg,1612046834172,245948550360117,301,-1,-25
OrientationDeg,1612046834182,245948560424317,301,-1,-25
OrientationDeg,1612046834192,245948570488550,301,-1,-25
OrientationDeg,1612046834202,245948580552750,301,-1,-25
OrientationDeg,1612046834212,245948590616983,301,-1,-25
OrientationDeg,1612046834222,245948600681183,301,-1,-25
OrientationDeg,1612046834232,245948610745383,301,-1,-25
OrientationDeg,1612046834241,245948620809916,301,-1,-25
OrientationDeg,1612046834252,245948630874116,301,-1,-25
OrientationDeg,1612046834262,245948640938349,301,-1,-25
OrientationDeg,1612046834272,245948651002549,301,-1,-25
OrientationDeg,1612046834283,245948661066782,301,-1,-25
OrientationDeg,1612046834293,245948671130982,301,-1,-25
OrientationDeg,1612046834303,245948681161882,301,-1,-25
OrientationDeg,1612046834312,245948691192748,301,-1,-25
OrientationDeg,1612046834323,245948701223648,301,-1,-25
OrientationDeg,1612046834333,245948711221181,301,-1,-25
OrientationDeg,1612046834343,245948721218747,301,-1,-25
OrientationDeg,1612046834352,245948731216313,301,-1,-25
OrientationDeg,1612046834363,245948741213879,301,-1,-25
OrientationDeg,1612046834373,245948751211445,301,-1,-25
OrientationDeg,1612046834382,245948761209011,301,-1,-25
OrientationDeg,1612046834393,245948771206577,301,-1,-25
OrientationDeg,1612046834403,245948781204110,301,-1,-25
OrientationDeg,1612046834413,245948791201676,301,-1,-25
OrientationDeg,1612046834423,245948801199209,301,-1,-25
OrientationDeg,1612046834433,245948811196775,301,-1,-25
OrientationDeg,1612046834443,245948821194341,301,-1,-25
OrientationDeg,1612046834453,245948831191907,301,-1,-25
OrientationDeg,1612046834463,245948841189473,301,-1,-25
OrientationDeg,1612046834473,245948851187039,301,-1,-25
OrientationDeg,1612046834483,245948861184605,301,-1,-25
OrientationDeg,1612046834493,245948871182138,301,-1,-25
OrientationDeg,1612046834503,245948881179704,301,-1,-25
OrientationDeg,1612046834513,245948891177304,301,-1,-25
OrientationDeg,1612046834523,245948901174870,301,-1,-25
OrientationDeg,1612046834533,245948911172436,301,-1,-25
OrientationDeg,1612046834543,245948921169669,301,-1,-25
OrientationDeg,1612046834553,245948931167235,301,-1,-25
OrientationDeg,1612046834563,245948941164768,301,-1,-25
OrientationDeg,1612046834573,245948951162334,301,-1,-25
OrientationDeg,1612046834583,245948961159867,301,-1,-25
OrientationDeg,1612046834593,245948971157433,301,-1,-25
OrientationDeg,1612046834603,245948981154999,301,-1,-25
OrientationDeg,1612046834613,245948991152565,301,-1,-25
OrientationDeg,1612046834623,245949001150131,301,-1,-25
OrientationDeg,1612046834633,245949011147697,301,-1,-25
OrientationDeg,1612046834643,245949021145263,301,-1,-25
OrientationDeg,1612046834653,245949031142796,301,-1,-25
OrientationDeg,1612046834663,245949041140362,301,-1,-25
OrientationDeg,1612046834673,245949051137895,301,-1,-25
OrientationDeg,1612046834683,245949061135461,301,-1,-25
OrientationDeg,1612046834693,245949071133027,301,-1,-25
OrientationDeg,1612046834703,245949081130593,301,-1,-25
OrientationDeg,1612046834713,245949091128159,301,-1,-25
OrientationDeg,1612046834723,245949101126025,301,-1,-25
OrientationDeg,1612046834733,245949111123591,301,-1,-25
OrientationDeg,1612046834743,245949121121124,301,-1,-25
OrientationDeg,1612046834753,245949131118690,301,-1,-25
OrientationDeg,1612046834763,245949141116223,301,-1,-25
OrientationDeg,1612046834773,245949151113789,301,-1,-25
OrientationDeg,1612046834783,245949161111355,301,-1,-25
OrientationDeg,1612046834793,245949171108921,301,-1,-25
OrientationDeg,1612046834802,245949181106487,301,-1,-25
OrientationDeg,1612046834813,245949191104053,301,-1,-25
OrientationDeg,1612046834823,245949201101619,301,-1,-25
OrientationDeg,1612046834833,245949211099152,301,-1,-25
OrientationDeg,1612046834843,245949221096718,301,-1,-25
OrientationDeg,1612046834853,245949231094251,301,-1,-25
OrientationDeg,1612046834863,245949241091817,301,-1,-25
OrientationDeg,1612046834873,245949251089383,301,-1,-25
OrientationDeg,1612046834883,245949261086949,301,-1,-25
OrientationDeg,1612046834893,245949271084515,301,-1,-25
OrientationDeg,1612046834903,245949281082048,301,-1,-25
OrientationDeg,1612046834913,245949291079614,301,-1,-25
OrientationDeg,1612046834923,245949301077147,301,-1,-25
OrientationDeg,1612046834933,245949311074713,301,-1,-25
OrientationDeg,1612046834943,245949321072279,301,-1,-25
OrientationDeg,1612046834953,245949331069845,301,-1,-25
OrientationDeg,1612046834962,245949341067445,301,-1,-25
OrientationDeg,1612046834973,245949351065011,301,-1,-25
OrientationDeg,1612046834983,245949361062577,301,-1,-25
OrientationDeg,1612046834993,245949371060110,301,-1,-25
OrientationDeg,1612046835003,245949381057676,301,-1,-25
OrientationDeg,1612046835013,245949391055209,301,-1,-25
OrientationDeg,1612046835023,245949401052475,301,-1,-25
OrientationDeg,1612046835033,245949411050041,301,-1,-25
OrientationDeg,1612046835043,245949421047607,301,-1,-25
OrientationDeg,1612046835053,245949431078473,301,-1,-25
OrientationDeg,1612046835063,245949441109373,301,-1,-25
OrientationDeg,1612046835073,245949451140273,301,-1,-25
OrientationDeg,1612046835083,245949461171139,301,-1,-25
OrientationDeg,1612046835093,245949471202039,301,-1,-25
OrientationDeg,1612046835103,245949481232905,301,-1,-25
OrientationDeg,1612046835113,245949491263738,301,-1,-25
OrientationDeg,1612046835123,245949501294604,301,-1,-25
OrientationDeg,1612046835133,245949511325504,301,-1,-25
OrientationDeg,1612046835143,245949521356370,301,-1,-25
OrientationDeg,1612046835153,245949531387270,301,-1,-25
OrientationDeg,1612046835163,245949541418170,301,-1,-25
OrientationDeg,1612046835172,245949551449036,301,-1,-25
OrientationDeg,1612046835183,245949561479936,301,-1,-25
OrientationDeg,1612046835193,245949571510802,301,-1,-25
OrientationDeg,1612046835203,245949581541702,301,-1,-25
OrientationDeg,1612046835213,245949591572568,301,-1,-25
OrientationDeg,1612046835223,245949601603468,301,-1,-25
OrientationDeg,1612046835233,245949611634134,301,-1,-25
OrientationDeg,1612046835243,245949621665000,301,-1,-25
OrientationDeg,1612046835253,245949631695900,301,-1,-25
OrientationDeg,1612046835263,245949641726733,301,-1,-25
OrientationDeg,1612046835273,245949651757633,301,-1,-25
OrientationDeg,1612046835283,245949661788499,301,-1,-25
OrientationDeg,1612046835293,245949671819399,301,-1,-25
OrientationDeg,1612046835303,245949681850265,301,-1,-25
OrientationDeg,1612046835313,245949691881165,301,-1,-25
OrientationDeg,1612046835323,245949701912031,301,-1,-25
OrientationDeg,1612046835333,245949711942897,301,-1,-25
OrientationDeg,1612046835344,245949722007130,301,-1,-25
OrientationDeg,1612046835354,245949732038030,301,-1,-25
OrientationDeg,1612046835364,245949742068896,301,-1,-25
OrientationDeg,1612046835374,245949752099762,301,-1,-25
OrientationDeg,1612046835384,245949762130662,301,-1,-25
OrientationDeg,1612046835394,245949772161528,301,-1,-25
OrientationDeg,1612046835404,245949782192428,301,-1,-25
OrientationDeg,1612046835414,245949792223328,301,-1,-25
OrientationDeg,1612046835424,245949802254228,301,-1,-25
OrientationDeg,1612046835434,245949812285094,301,-1,-25
OrientationDeg,1612046835444,245949822315994,301,-1,-25
OrientationDeg,1612046835454,245949832346894,301,-1,-25
OrientationDeg,1612046835464,245949842377760,301,-1,-25
OrientationDeg,1612046835474,245949852408660,301,-1,-25
OrientationDeg,1612046835484,245949862439526,301,-1,-25
OrientationDeg,1612046835494,245949872470426,301,-1,-25
OrientationDeg,1612046835504,245949882501359,301,-1,-25
OrientationDeg,1612046835514,245949892532259,301,-1,-25
OrientationDeg,1612046835524,245949902563125,301,-1,-25
OrientationDeg,1612046835534,245949912594225,301,-1,-25
OrientationDeg,1612046835544,245949922625125,301,-1,-25
OrientationDeg,1612046835554,245949932655991,301,-1,-25
OrientationDeg,1612046835564,245949942686891,301,-1,-25
OrientationDeg,1612046835574,245949952717757,301,-1,-25
OrientationDeg,1612046835584,245949962748657,301,-1,-25
OrientationDeg,1612046835594,245949972779523,301,-1,-25
OrientationDeg,1612046835604,245949982810423,301,-1,-25
OrientationDeg,1612046835614,245949992841289,301,-1,-25
OrientationDeg,1612046835624,245950002872189,301,-1,-25
OrientationDeg,1612046835633,245950012903089,301,-1,-25
OrientationDeg,1612046835644,245950022900622,301,-1,-25
OrientationDeg,1612046835654,245950032898188,301,-1,-25
OrientationDeg,1612046835664,245950042895754,301,-1,-25
OrientationDeg,1612046835674,245950052893320,301,-1,-25
OrientationDeg,1612046835684,245950062890853,301,-1,-25
OrientationDeg,1612046835694,245950072888419,301,-1,-25
OrientationDeg,1612046835704,245950082885952,301,-1,-25
OrientationDeg,1612046835713,245950092883552,301,-1,-25
OrientationDeg,1612046835724,245950102881118,301,-1,-25
OrientationDeg,1612046835734,245950112878684,301,-1,-25
OrientationDeg,1612046835744,245950122876250,301,-1,-25
OrientationDeg,1612046835754,245950132873783,301,-1,-25
OrientationDeg,1612046835764,245950142871349,301,-1,-25
OrientationDeg,1612046835774,245950152868949,301,-1,-25
OrientationDeg,1612046835784,245950162866515,301,-1,-25
OrientationDeg,1612046835794,245950172864048,301,-1,-25
OrientationDeg,1612046835804,245950182861548,301,-1,-25
OrientationDeg,1612046835814,245950192859114,301,-1,-25
OrientationDeg,1612046835824,245950202856680,301,-1,-25
OrientationDeg,1612046835834,245950212854246,301,-1,-25
OrientationDeg,1612046835844,245950222851779,301,-1,-25
OrientationDeg,1612046835854,245950232849345,301,-1,-25
OrientationDeg,1612046835864,245950242846878,301,-1,-25
OrientationDeg,1612046835873,245950252844444,301,-1,-25
OrientationDeg,1612046835883,245950262842010,301,-1,-25
OrientationDeg,1612046835894,245950272839576,301,-1,-25
OrientationDeg,1612046835904,245950282837142,301,-1,-25
OrientationDeg,1612046835914,245950292834708,301,-1,-25
OrientationDeg,1612046835924,245950302832308,301,-1,-25
OrientationDeg,1612046835934,245950312829841,301,-1,-25
OrientationDeg,1612046835944,245950322827407,301,-1,-25
OrientationDeg,1612046835954,245950332824940,301,-1,-25
OrientationDeg,1612046835964,245950342822506,301,-1,-25
OrientationDeg,1612046835974,245950352820072,301,-1,-25
OrientationDeg,1612046835984,245950362817638,301,-1,-25
OrientationDeg,1612046835994,245950372815238,301,-1,-25
OrientationDeg,1612046836004,245950382812804,301,-1,-25
OrientationDeg,1612046836014,245950392810304,301,-1,-25
OrientationDeg,1612046836024,245950402807837,301,-1,-25
OrientationDeg,1612046836034,245950412805403,301,-1,-25
OrientationDeg,1612046836044,245950422802936,301,-1,-25
OrientationDeg,1612046836054,245950432800502,301,-1,-25
OrientationDeg,1612046836064,245950442798068,301,-1,-25
OrientationDeg,1612046836073,245950452795568,301,-1,-25
OrientationDeg,1612046836084,245950462793134,301,-1,-25
OrientationDeg,1612046836094,245950472790700,301,-1,-25
OrientationDeg,1612046836104,245950482788266,301,-1,-25
OrientationDeg,1612046836114,245950492785799,301,-1,-25
OrientationDeg,1612046836124,245950502783365,301,-1,-25
OrientationDeg,1612046836134,245950512780898,301,-1,-25
OrientationDeg,1612046836144,245950522778464,301,-1,-25
OrientationDeg,1612046836154,245950532776030,301,-1,-25
OrientationDeg,1612046836164,245950542773596,301,-1,-25
OrientationDeg,1612046836174,245950552771162,301,-1,-25
OrientationDeg,1612046836184,245950562768695,301,-1,-25
OrientationDeg,1612046836193,245950572766261,301,-1,-25
OrientationDeg,1612046836203,245950582763794,301,-1,-25
OrientationDeg,1612046836213,245950592761360,301,-1,-25
OrientationDeg,1612046836224,245950602758893,301,-1,-25
OrientationDeg,1612046836234,245950612756459,301,-1,-25
OrientationDeg,1612046836244,245950622754025,301,-1,-25
OrientationDeg,1612046836254,245950632751591,301,-1,-25
OrientationDeg,1612046836263,245950642749157,301,-1,-25
OrientationDeg,1612046836274,245950652746690,301,-1,-25
OrientationDeg,1612046836284,245950662744256,301,-1,-25
OrientationDeg,1612046836294,245950672741756,301,-1,-25
OrientationDeg,1612046836304,245950682739322,301,-1,-25
OrientationDeg,1612046836314,245950692736888,301,-1,-25
OrientationDeg,1612046836324,245950702734454,301,-1,-25
OrientationDeg,1612046836334,245950712732020,301,-1,-25
OrientationDeg,1612046836344,245950722729586,301,-1,-25
OrientationDeg,1612046836354,245950732727152,301,-1,-25
OrientationDeg,1612046836364,245950742724685,301,-1,-25
OrientationDeg,1612046836374,245950752722251,301,-1,-25
OrientationDeg,1612046836384,245950762719784,301,-1,-25
OrientationDeg,1612046836394,245950772717350,301,-1,-25
OrientationDeg,1612046836404,245950782714916,301,-1,-25
OrientationDeg,1612046836414,245950792712482,301,-1,-25
OrientationDeg,1612046836424,245950802710048,301,-1,-25
OrientationDeg,1612046836434,245950812707614,301,-1,-25
OrientationDeg,1612046836444,245950822705180,301,-1,-25
OrientationDeg,1612046836454,245950832702713,301,-1,-25
OrientationDeg,1612046836464,245950842700279,301,-1,-25
OrientationDeg,1612046836474,245950852697812,301,-1,-25
OrientationDeg,1612046836484,245950862695378,301,-1,-25
OrientationDeg,1612046836494,245950872692944,301,-1,-25
OrientationDeg,1612046836504,245950882690510,301,-1,-25
OrientationDeg,1612046836513,245950892688076,301,-1,-25
OrientationDeg,1612046836524,245950902685642,301,-1,-25
OrientationDeg,1612046836534,245950912683208,301,-1,-25
OrientationDeg,1612046836544,245950922680741,301,-1,-25
OrientationDeg,1612046836554,245950932678307,301,-1,-25
OrientationDeg,1612046836564,245950942675873,301,-1,-25
OrientationDeg,1612046836574,245950952673439,301,-1,-25
OrientationDeg,1612046836584,245950962671005,301,-1,-25
OrientationDeg,1612046836594,245950972668571,301,-1,-25
OrientationDeg,1612046836604,245950982666137,301,-1,-25
OrientationDeg,1612046836614,245950992663670,301,-1,-25
OrientationDeg,1612046836623,245951002661236,301,-1,-25
OrientationDeg,1612046836634,245951012658769,301,-1,-25
OrientationDeg,1612046836644,245951022656335,301,-1,-25
OrientationDeg,1612046836654,245951032653901,301,-1,-25
OrientationDeg,1612046836664,245951042651467,301,-1,-25
OrientationDeg,1612046836674,245951052649033,301,-1,-25
OrientationDeg,1612046836684,245951062646599,301,-1,-25
OrientationDeg,1612046836694,245951072644165,301,-1,-25
OrientationDeg,1612046836704,245951082641765,301,-1,-25
OrientationDeg,1612046836714,245951092639331,301,-1,-25
OrientationDeg,1612046836724,245951102636864,301,-1,-25
OrientationDeg,1612046836734,245951112634430,301,-1,-25
OrientationDeg,1612046836744,245951122631996,301,-1,-25
OrientationDeg,1612046836754,245951132629562,301,-1,-25
OrientationDeg,1612046836764,245951142627128,301,-1,-25
OrientationDeg,1612046836774,245951152624694,301,-1,-25
OrientationDeg,1612046836784,245951162622260,301,-1,-25
OrientationDeg,1612046836794,245951172619793,301,-1,-25
OrientationDeg,1612046836804,245951182617359,301,-1,-25
OrientationDeg,1612046836814,245951192614892,301,-1,-25
OrientationDeg,1612046836824,245951202612425,301,-1,-25
OrientationDeg,1612046836834,245951212609991,301,-1,-25
OrientationDeg,1612046836844,245951222607557,301,-1,-25
OrientationDeg,1612046836854,245951232605023,301,-1,-25
OrientationDeg,1612046836864,245951242602556,301,-1,-25
OrientationDeg,1612046836874,245951252600122,301,-1,-25
OrientationDeg,1612046836884,245951262597655,301,-1,-25
OrientationDeg,1612046836894,245951272595221,301,-1,-25
OrientationDeg,1612046836904,245951282592787,301,-1,-25
OrientationDeg,1612046836913,245951292590353,301,-1,-25
OrientationDeg,1612046836924,245951302587919,301,-1,-25
OrientationDeg,1612046836934,245951312585485,301,-1,-25
OrientationDeg,1612046836943,245951322583051,301,-1,-25
OrientationDeg,1612046836954,245951332580584,301,-1,-25
OrientationDeg,1612046836964,245951342578150,301,-1,-25
OrientationDeg,1612046836973,245951352575683,301,-1,-25
OrientationDeg,1612046836984,245951362573249,301,-1,-25
OrientationDeg,1612046836994,245951372570815,301,-1,-25
OrientationDeg,1612046837004,245951382568315,301,-1,-25
OrientationDeg,1612046837014,245951392565881,301,-1,-25
OrientationDeg,1612046837024,245951402563447,301,-1,-25
OrientationDeg,1612046837034,245951412561013,301,-1,-25
OrientationDeg,1612046837044,245951422558546,301,-1,-25
OrientationDeg,1612046837054,245951432556112,301,-1,-25
OrientationDeg,1612046837064,245951442553645,301,-1,-25
OrientationDeg,1612046837074,245951452551211,301,-1,-25
OrientationDeg,1612046837084,245951462548777,301,-1,-25
OrientationDeg,1612046837094,245951472546343,301,-1,-25
OrientationDeg,1612046837104,245951482543909,301,-1,-25
OrientationDeg,1612046837113,245951492541475,301,-1,-25
OrientationDeg,1612046837124,245951502539041,301,-1,-25
OrientationDeg,1612046837134,245951512536574,301,-1,-25
OrientationDeg,1612046837144,245951522534140,301,-1,-25
OrientationDeg,1612046837154,245951532531806,301,-1,-25
OrientationDeg,1612046837163,245951542529372,301,-1,-25
OrientationDeg,1612046837174,245951552526938,301,-1,-25
OrientationDeg,1612046837184,245951562524504,301,-1,-25
OrientationDeg,1612046837194,245951572522070,301,-1,-25
OrientationDeg,1612046837204,245951582519603,301,-1,-25
OrientationDeg,1612046837214,245951592517169,301,-1,-25
OrientationDeg,1612046837224,245951602514702,301,-1,-25
OrientationDeg,1612046837234,245951612512268,301,-1,-25
OrientationDeg,1612046837244,245951622509801,301,-1,-25
OrientationDeg,1612046837254,245951632507367,301,-1,-25
OrientationDeg,1612046837264,245951642504933,301,-1,-25
OrientationDeg,1612046837273,245951652502499,301,-1,-25
OrientationDeg,1612046837284,245951662500065,301,-1,-25
OrientationDeg,1612046837294,245951672497898,301,-1,-25
OrientationDeg,1612046837304,245951682495464,301,-1,-25
OrientationDeg,1612046837314,245951692492997,301,-1,-25
OrientationDeg,1612046837324,245951702490563,301,-1,-25
OrientationDeg,1612046837334,245951712488129,301,-1,-25
OrientationDeg,1612046837344,245951722485695,301,-1,-25
OrientationDeg,1612046837354,245951732483261,301,-1,-25
OrientationDeg,1612046837364,245951742480827,301,-1,-25
OrientationDeg,1612046837374,245951752478393,301,-1,-25
OrientationDeg,1612046837384,245951762475926,301,-1,-25
OrientationDeg,1612046837394,245951772473492,301,-1,-25
OrientationDeg,1612046837404,245951782471025,301,-1,-25
OrientationDeg,1612046837414,245951792468591,301,-1,-25
OrientationDeg,1612046837424,245951802466157,301,-1,-25
OrientationDeg,1612046837434,245951812463723,301,-1,-25
OrientationDeg,1612046837444,245951822461289,301,-1,-25
OrientationDeg,1612046837454,245951832458822,301,-1,-25
OrientationDeg,1612046837464,245951842456388,301,-1,-25
OrientationDeg,1612046837474,245951852453921,301,-1,-25
OrientationDeg,1612046837483,245951862451487,301,-1,-25
OrientationDeg,1612046837494,245951872449020,301,-1,-25
OrientationDeg,1612046837504,245951882446686,301,-1,-25
OrientationDeg,1612046837514,245951892444252,301,-1,-25
OrientationDeg,1612046837524,245951902441818,301,-1,-25
OrientationDeg,1612046837534,245951912439384,301,-1,-25
OrientationDeg,1612046837544,245951922436950,301,-1,-25
OrientationDeg,1612046837553,245951932434516,301,-1,-25
OrientationDeg,1612046837563,245951942432049,301,-1,-25
OrientationDeg,1612046837574,245951952429615,301,-1,-25
OrientationDeg,1612046837584,245951962427148,301,-1,-25
OrientationDeg,1612046837594,245951972424414,301,-1,-25
OrientationDeg,1612046837604,245951982421980,301,-1,-25
OrientationDeg,1612046837614,245951992419546,301,-1,-25
OrientationDeg,1612046837624,245952002417146,301,-1,-25
OrientationDeg,1612046837633,245952012414679,301,-1,-25
OrientationDeg,1612046837644,245952022412245,301,-1,-25
OrientationDeg,1612046837654,245952032409778,301,-1,-25
OrientationDeg,1612046837664,245952042407344,301,-1,-25
OrientationDeg,1612046837674,245952052404910,301,-1,-25
OrientationDeg,1612046837684,245952062402476,301,-1,-25
OrientationDeg,1612046837694,245952072400042,301,-1,-25
OrientationDeg,1612046837704,245952082397608,301,-1,-25
OrientationDeg,1612046837714,245952092394008,301,-1,-25
OrientationDeg,1612046837724,245952102391541,301,-1,-25
OrientationDeg,1612046837733,245952112389107,301,-1,-25
OrientationDeg,1612046837744,245952122386707,301,-1,-25
OrientationDeg,1612046837754,245952132384273,301,-1,-25
OrientationDeg,1612046837764,245952142381839,301,-1,-25
OrientationDeg,1612046837774,245952152379405,301,-1,-25
OrientationDeg,1612046837784,245952162376971,301,-1,-25
OrientationDeg,1612046837793,245952172374537,301,-1,-25
OrientationDeg,1612046837804,245952182372003,301,-1,-25
OrientationDeg,1612046837814,245952192369536,301,-1,-25
OrientationDeg,1612046837824,245952202367102,301,-1,-25
OrientationDeg,1612046837834,245952212364635,301,-1,-25
OrientationDeg,1612046837844,245952222362201,301,-1,-25
OrientationDeg,1612046837854,245952232359767,301,-1,-25
OrientationDeg,1612046837864,245952242357333,301,-1,-25
OrientationDeg,1612046837874,245952252354933,301,-1,-25
OrientationDeg,1612046837884,245952262352499,301,-1,-25
OrientationDeg,1612046837894,245952272350065,301,-1,-25
OrientationDeg,1612046837904,245952282347598,301,-1,-25
OrientationDeg,1612046837914,245952292345164,301,-1,-25
OrientationDeg,1612046837924,245952302342664,301,-1,-25
OrientationDeg,1612046837934,245952312340230,301,-1,-25
OrientationDeg,1612046837944,245952322337796,301,-1,-25
OrientationDeg,1612046837954,245952332335362,301,-1,-25
OrientationDeg,1612046837964,245952342332928,301,-1,-25
OrientationDeg,1612046837974,245952352330461,301,-1,-25
OrientationDeg,1612046837984,245952362328027,301,-1,-25
OrientationDeg,1612046837994,245952372325560,301,-1,-25
OrientationDeg,1612046838004,245952382323126,301,-1,-25
OrientationDeg,1612046838014,245952392321892,301,-1,-25
OrientationDeg,1612046838023,245952402319458,301,-1,-25
OrientationDeg,1612046838034,245952412350358,301,-1,-25
OrientationDeg,1612046838044,245952422381191,301,-1,-25
OrientationDeg,1612046838054,245952432412057,301,-1,-25
OrientationDeg,1612046838064,245952442442923,301,-1,-25
OrientationDeg,1612046838074,245952452473823,301,-1,-25
OrientationDeg,1612046838084,245952462504689,301,-1,-25
OrientationDeg,1612046838094,245952472535589,301,-1,-25
OrientationDeg,1612046838104,245952482566455,301,-1,-25
OrientationDeg,1612046838114,245952492597355,301,-1,-25
OrientationDeg,1612046838124,245952502628221,301,-1,-25
OrientationDeg,1612046838134,245952512659121,301,-1,-25
OrientationDeg,1612046838144,245952522690021,301,-1,-25
OrientationDeg,1612046838154,245952532720887,301,-1,-25
OrientationDeg,1612046838164,245952542751787,301,-1,-25
OrientationDeg,1612046838174,245952552782620,301,-1,-25
OrientationDeg,1612046838184,245952562813520,301,-1,-25
OrientationDeg,1612046838194,245952572844386,301,-1,-25
OrientationDeg,1612046838204,245952582875286,301,-1,-25
OrientationDeg,1612046838214,245952592906152,301,-1,-25
OrientationDeg,1612046838224,245952602937052,301,-1,-25
OrientationDeg,1612046838234,245952612967952,301,-1,-25
OrientationDeg,1612046838244,245952622998818,301,-1,-25
OrientationDeg,1612046838255,245952633029784,301,-1,-25
OrientationDeg,1612046838265,245952643060650,301,-1,-25
OrientationDeg,1612046838275,245952653091550,301,-1,-25
OrientationDeg,1612046838285,245952663122416,301,-1,-25
OrientationDeg,1612046838294,245952673153316,301,-1,-25
OrientationDeg,1612046838305,245952683184182,301,-1,-25
OrientationDeg,1612046838315,245952693215015,301,-1,-25
OrientationDeg,1612046838325,245952703245915,301,-1,-25
OrientationDeg,1612046838335,245952713243448,301,-1,-25
OrientationDeg,1612046838345,245952723241014,301,-1,-25
OrientationDeg,1612046838355,245952733238580,301,-1,-25
OrientationDeg,1612046838365,245952743236146,301,-1,-25
OrientationDeg,1612046838375,245952753233779,301,-1,-25
OrientationDeg,1612046838385,245952763231345,301,-1,-25
OrientationDeg,1612046838395,245952773228878,301,-1,-25
OrientationDeg,1612046838405,245952783226444,301,-1,-25
OrientationDeg,1612046838415,245952793224010,301,-1,-25
OrientationDeg,1612046838424,245952803221576,301,-1,-25
OrientationDeg,1612046838435,245952813219142,301,-1,-25
OrientationDeg,1612046838445,245952823216675,301,-1,-25
OrientationDeg,1612046838455,245952833214241,301,-1,-25
OrientationDeg,1612046838465,245952843211841,301,-1,-25
OrientationDeg,1612046838475,245952853209407,301,-1,-25
OrientationDeg,1612046838485,245952863206973,301,-1,-25
OrientationDeg,1612046838495,245952873204539,301,-1,-25
OrientationDeg,1612046838505,245952883202105,301,-1,-25
OrientationDeg,1612046838515,245952893199671,301,-1,-25
OrientationDeg,1612046838525,245952903197237,301,-1,-25
OrientationDeg,1612046838535,245952913194770,301,-1,-25
OrientationDeg,1612046838545,245952923192336,301,-1,-25
OrientationDeg,1612046838555,245952933189902,301,-1,-25
OrientationDeg,1612046838565,245952943187468,301,-1,-25
OrientationDeg,1612046838575,245952953185034,301,-1,-25
OrientationDeg,1612046838585,245952963182600,301,-1,-25
OrientationDeg,1612046838594,245952973180166,301,-1,-25
OrientationDeg,1612046838605,245952983177732,301,-1,-25
OrientationDeg,1612046838615,245952993175365,301,-1,-24
OrientationDeg,1612046838625,245953003172898,301,-1,-24
OrientationDeg,1612046838635,245953013170464,301,-1,-24
OrientationDeg,1612046838645,245953023167997,301,-1,-24
OrientationDeg,1612046838655,245953033165563,301,-1,-24
OrientationDeg,1612046838665,245953043163129,301,-1,-24
OrientationDeg,1612046838675,245953053160595,301,-1,-24
OrientationDeg,1612046838685,245953063158161,301,-1,-24
OrientationDeg,1612046838694,245953073155727,301,-1,-24
OrientationDeg,1612046838705,245953083153293,301,-1,-24
OrientationDeg,1612046838714,245953093150826,301,-1,-24
OrientationDeg,1612046838725,245953103148392,301,-1,-24
OrientationDeg,1612046838734,245953113145925,301,-1,-24
OrientationDeg,1612046838745,245953123143491,301,-1,-24
OrientationDeg,1612046838755,245953133141057,301,-1,-24
OrientationDeg,1612046838765,245953143138557,301,-1,-24
OrientationDeg,1612046838775,245953153136123,301,-1,-24
OrientationDeg,1612046838784,245953163133656,301,-1,-24
OrientationDeg,1612046838795,245953173131222,301,-1,-24
OrientationDeg,1612046838805,245953183128755,301,-1,-24
OrientationDeg,1612046838815,245953193126321,301,-1,-24
OrientationDeg,1612046838824,245953203123887,301,-1,-24
OrientationDeg,1612046838834,245953213121453,301,-1,-24
OrientationDeg,1612046838845,245953223119019,301,-1,-24
OrientationDeg,1612046838855,245953233116485,301,-1,-24
OrientationDeg,1612046838865,245953243114051,301,-1,-24
OrientationDeg,1612046838875,245953253111584,301,-1,-24
OrientationDeg,1612046838885,245953263109150,301,-1,-24
OrientationDeg,1612046838895,245953273106683,301,-1,-24
OrientationDeg,1612046838905,245953283104249,301,-1,-24
OrientationDeg,1612046838915,245953293101749,301,-1,-24
OrientationDeg,1612046838925,245953303099315,301,-1,-24
OrientationDeg,1612046838935,245953313096881,301,-1,-24
OrientationDeg,1612046838945,245953323094447,301,-1,-24
OrientationDeg,1612046838955,245953333092013,301,-1,-24
OrientationDeg,1612046838964,245953343089546,301,-1,-24
OrientationDeg,1612046838975,245953353087112,301,-1,-24
OrientationDeg,1612046838985,245953363084645,301,-1,-24
OrientationDeg,1612046838995,245953373082211,301,-1,-24
OrientationDeg,1612046839005,245953383079777,301,-1,-24
OrientationDeg,1612046839015,245953393077343,301,-1,-24
OrientationDeg,1612046839025,245953403074909,301,-1,-24
OrientationDeg,1612046839035,245953413072542,301,-1,-24
OrientationDeg,1612046839045,245953423070108,301,-1,-24
OrientationDeg,1612046839055,245953433067641,301,-1,-24
OrientationDeg,1612046839065,245953443065207,301,-1,-24
OrientationDeg,1612046839075,245953453062740,301,-1,-24
OrientationDeg,1612046839085,245953463060306,301,-1,-24
OrientationDeg,1612046839095,245953473057872,301,-1,-24
OrientationDeg,1612046839105,245953483055438,301,-1,-24
OrientationDeg,1612046839115,245953493053004,301,-1,-24
OrientationDeg,1612046839125,245953503050537,301,-1,-24
OrientationDeg,1612046839135,245953513048103,301,-1,-24
OrientationDeg,1612046839145,245953523045636,301,-1,-24
OrientationDeg,1612046839155,245953533043202,301,-1,-24
OrientationDeg,1612046839164,245953543040768,301,-1,-24
OrientationDeg,1612046839175,245953553038334,301,-1,-24
OrientationDeg,1612046839185,245953563035900,301,-1,-24
OrientationDeg,1612046839195,245953573033466,301,-1,-24
OrientationDeg,1612046839205,245953583031032,301,-1,-24
OrientationDeg,1612046839215,245953593028565,301,-1,-24
OrientationDeg,1612046839225,245953603026131,301,-1,-24
OrientationDeg,1612046839235,245953613023664,301,-1,-24
OrientationDeg,1612046839245,245953623021230,301,-1,-24
OrientationDeg,1612046839255,245953633018796,301,-1,-24
OrientationDeg,1612046839265,245953643016362,301,-1,-24
OrientationDeg,1612046839275,245953653013928,301,-1,-24
OrientationDeg,1612046839285,245953663011494,301,-1,-24
OrientationDeg,1612046839295,245953673009060,301,-1,-24
OrientationDeg,1612046839305,245953683006593,301,-1,-24
OrientationDeg,1612046839315,245953693004159,301,-1,-24
OrientationDeg,1612046839325,245953703001692,301,-1,-24
OrientationDeg,1612046839334,245953712999192,301,-1,-24
OrientationDeg,1612046839344,245953722996758,301,-1,-24
OrientationDeg,1612046839354,245953732994324,301,-1,-24
OrientationDeg,1612046839364,245953742991890,301,-1,-24
OrientationDeg,1612046839374,245953752989456,301,-1,-24
OrientationDeg,1612046839384,245953762987022,301,-1,-24
OrientationDeg,1612046839394,245953773017888,301,-1,-24
OrientationDeg,1612046839405,245953783048788,301,-1,-24
OrientationDeg,1612046839415,245953793079654,301,-1,-24
OrientationDeg,1612046839425,245953803110554,301,-1,-24
OrientationDeg,1612046839435,245953813141420,301,-1,-24
OrientationDeg,1612046839445,245953823172320,301,-1,-24
OrientationDeg,1612046839455,245953833203186,301,-1,-24
OrientationDeg,1612046839465,245953843234052,301,-1,-24
OrientationDeg,1612046839475,245953853264952,301,-1,-24
OrientationDeg,1612046839485,245953863295818,301,-1,-24
OrientationDeg,1612046839495,245953873326718,301,-1,-24
OrientationDeg,1612046839505,245953883357584,301,-1,-24
OrientationDeg,1612046839515,245953893388484,301,-1,-24
OrientationDeg,1612046839525,245953903419350,301,-1,-24
OrientationDeg,1612046839535,245953913450250,301,-1,-24
OrientationDeg,1612046839545,245953923481116,301,-1,-24
OrientationDeg,1612046839555,245953933511982,301,-1,-24
OrientationDeg,1612046839565,245953943542882,301,-1,-24
OrientationDeg,1612046839575,245953953573748,301,-1,-24
OrientationDeg,1612046839585,245953963604648,301,-1,-24
OrientationDeg,1612046839595,245953973635514,301,-1,-24
OrientationDeg,1612046839605,245953983666414,301,-1,-24
OrientationDeg,1612046839614,245953993697280,301,-1,-24
OrientationDeg,1612046839625,245954003728180,301,-1,-24
OrientationDeg,1612046839635,245954013759080,301,-1,-24
OrientationDeg,1612046839644,245954023789946,301,-1,-24
OrientationDeg,1612046839655,245954033820846,301,-1,-24
OrientationDeg,1612046839665,245954043851779,301,-1,-24
OrientationDeg,1612046839675,245954053882679,301,-1,-24
OrientationDeg,1612046839684,245954063913545,301,-1,-24
OrientationDeg,1612046839695,245954073911111,301,-1,-24
OrientationDeg,1612046839705,245954083908644,301,-1,-24
OrientationDeg,1612046839715,245954093906210,301,-1,-24
OrientationDeg,1612046839725,245954103904776,301,-1,-24
OrientationDeg,1612046839735,245954113902342,301,-1,-24
OrientationDeg,1612046839745,245954123899908,301,-1,-24
OrientationDeg,1612046839755,245954133897474,301,-1,-24
OrientationDeg,1612046839765,245954143895040,301,-1,-24
OrientationDeg,1612046839775,245954153892573,301,-1,-24
OrientationDeg,1612046839785,245954163890139,301,-1,-24
OrientationDeg,1612046839795,245954173887672,301,-1,-24
OrientationDeg,1612046839805,245954183885238,301,-1,-24
OrientationDeg,1612046839815,245954193882804,301,-1,-24
OrientationDeg,1612046839825,245954203880370,301,-1,-24
OrientationDeg,1612046839835,245954213877936,301,-1,-24
OrientationDeg,1612046839845,245954223875402,301,-1,-24
OrientationDeg,1612046839855,245954233872968,301,-1,-24
OrientationDeg,1612046839865,245954243870501,301,-1,-24
OrientationDeg,1612046839875,245954253868067,301,-1,-24
OrientationDeg,1612046839885,245954263865600,301,-1,-24
OrientationDeg,1612046839895,245954273863166,301,-1,-24
OrientationDeg,1612046839905,245954283860732,301,-1,-24
OrientationDeg,1612046839915,245954293858298,301,-1,-24
OrientationDeg,1612046839925,245954303855898,301,-1,-24
OrientationDeg,1612046839935,245954313853431,301,-1,-24
OrientationDeg,1612046839945,245954323850997,301,-1,-24
OrientationDeg,1612046839955,245954333848530,301,-1,-24
OrientationDeg,1612046839964,245954343846030,301,-1,-24
OrientationDeg,1612046839975,245954353843596,301,-1,-24
OrientationDeg,1612046839984,245954363841162,301,-1,-24
OrientationDeg,1612046839995,245954373838728,301,-1,-24
OrientationDeg,1612046840005,245954383836294,301,-1,-24
OrientationDeg,1612046840015,245954393833860,301,-1,-24
OrientationDeg,1612046840025,245954403830393,301,-1,-24
OrientationDeg,1612046840034,245954413827959,301,-1,-24
OrientationDeg,1612046840045,245954423825492,301,-1,-24
OrientationDeg,1612046840055,245954433823058,301,-1,-24
OrientationDeg,1612046840065,245954443820624,301,-1,-24
OrientationDeg,1612046840075,245954453818190,301,-1,-24
OrientationDeg,1612046840085,245954463815756,301,-1,-24
OrientationDeg,1612046840095,245954473813322,301,-1,-24
OrientationDeg,1612046840105,245954483810888,301,-1,-24
OrientationDeg,1612046840115,245954493808421,301,-1,-24
OrientationDeg,1612046840125,245954503805987,301,-1,-24
OrientationDeg,1612046840135,245954513803520,301,-1,-24
OrientationDeg,1612046840145,245954523801186,301,-1,-24
OrientationDeg,1612046840155,245954533798752,301,-1,-24
OrientationDeg,1612046840165,245954543796318,301,-1,-24
OrientationDeg,1612046840175,245954553793884,301,-1,-24
OrientationDeg,1612046840184,245954563791450,301,-1,-24
OrientationDeg,1612046840195,245954573789016,301,-1,-24
OrientationDeg,1612046840205,245954583786549,301,-1,-24
OrientationDeg,1612046840215,245954593784115,301,-1,-24
OrientationDeg,1612046840224,245954603781648,301,-1,-24
OrientationDeg,1612046840235,245954613779214,301,-1,-24
OrientationDeg,1612046840244,245954623776780,301,-1,-24
OrientationDeg,1612046840255,245954633774346,301,-1,-24
OrientationDeg,1612046840265,245954643771912,301,-1,-24
OrientationDeg,1612046840275,245954653769445,301,-1,-24
OrientationDeg,1612046840284,245954663767011,301,-1,-24
OrientationDeg,1612046840295,245954673764577,301,-1,-24
OrientationDeg,1612046840305,245954683762143,301,-1,-24
OrientationDeg,1612046840315,245954693759709,301,-1,-24
OrientationDeg,1612046840324,245954703757275,301,-1,-24
OrientationDeg,1612046840335,245954713754841,301,-1,-24
OrientationDeg,1612046840345,245954723752407,301,-1,-24
OrientationDeg,1612046840355,245954733749973,301,-1,-24
OrientationDeg,1612046840365,245954743747506,301,-1,-24
OrientationDeg,1612046840375,245954753745072,301,-1,-24
OrientationDeg,1612046840385,245954763742605,301,-1,-24
OrientationDeg,1612046840395,245954773740171,301,-1,-24
OrientationDeg,1612046840405,245954783737737,301,-1,-24
OrientationDeg,1612046840415,245954793735303,301,-1,-24
OrientationDeg,1612046840425,245954803732869,301,-1,-24
OrientationDeg,1612046840435,245954813730435,301,-1,-24
OrientationDeg,1612046840445,245954823728001,301,-1,-24
OrientationDeg,1612046840455,245954833725534,301,-1,-24
OrientationDeg,1612046840465,245954843723100,301,-1,-24
OrientationDeg,1612046840475,245954853720633,301,-1,-24
OrientationDeg,1612046840485,245954863718199,301,-1,-24
OrientationDeg,1612046840495,245954873715765,301,-1,-24
OrientationDeg,1612046840505,245954883713331,301,-1,-24
OrientationDeg,1612046840515,245954893710931,301,-1,-24
OrientationDeg,1612046840525,245954903708464,301,-1,-24
OrientationDeg,1612046840535,245954913706030,301,-1,-24
OrientationDeg,1612046840545,245954923703563,301,-1,-24
OrientationDeg,1612046840555,245954933701129,301,-1,-24
OrientationDeg,1612046840565,245954943698662,301,-1,-24
OrientationDeg,1612046840575,245954953696228,301,-1,-24
OrientationDeg,1612046840585,245954963693794,301,-1,-24
OrientationDeg,1612046840595,245954973691327,301,-1,-24
OrientationDeg,1612046840605,245954983688893,301,-1,-24
OrientationDeg,1612046840615,245954993686426,301,-1,-24
OrientationDeg,1612046840625,245955003683992,301,-1,-24
OrientationDeg,1612046840635,245955013681525,301,-1,-24
OrientationDeg,1612046840644,245955023679091,301,-1,-24
OrientationDeg,1612046840655,245955033676624,301,-1,-24
OrientationDeg,1612046840665,245955043674190,301,-1,-24
OrientationDeg,1612046840675,245955053671756,301,-1,-24
OrientationDeg,1612046840685,245955063669322,301,-1,-24
OrientationDeg,1612046840695,245955073666888,301,-1,-24
OrientationDeg,1612046840705,245955083664421,301,-1,-24
OrientationDeg,1612046840715,245955093661987,301,-1,-24
OrientationDeg,1612046840725,245955103659520,301,-1,-24
OrientationDeg,1612046840735,245955113657086,301,-1,-24
OrientationDeg,1612046840745,245955123654652,301,-1,-24
OrientationDeg,1612046840755,245955133652218,301,-1,-24
OrientationDeg,1612046840765,245955143649784,301,-1,-24
OrientationDeg,1612046840775,245955153647350,301,-1,-24
OrientationDeg,1612046840785,245955163644916,301,-1,-24
OrientationDeg,1612046840795,245955173642449,301,-1,-24
OrientationDeg,1612046840805,245955183640015,301,-1,-24
OrientationDeg,1612046840815,245955193637515,301,-1,-24
OrientationDeg,1612046840825,245955203635081,301,-1,-24
OrientationDeg,1612046840835,245955213632647,301,-1,-24
OrientationDeg,1612046840844,245955223630213,301,-1,-24
OrientationDeg,1612046840855,245955233627779,301,-1,-24
OrientationDeg,1612046840865,245955243625345,301,-1,-24
OrientationDeg,1612046840875,245955253622911,301,-1,-24
OrientationDeg,1612046840885,245955263620444,301,-1,-24
OrientationDeg,1612046840895,245955273618010,301,-1,-24
OrientationDeg,1612046840905,245955283615543,301,-1,-24
OrientationDeg,1612046840915,245955293613109,301,-1,-24
OrientationDeg,1612046840925,245955303610675,301,-1,-24
OrientationDeg,1612046840935,245955313608241,301,-1,-24
OrientationDeg,1612046840945,245955323605807,301,-1,-24
OrientationDeg,1612046840955,245955333603373,301,-1,-24
OrientationDeg,1612046840965,245955343600939,301,-1,-24
OrientationDeg,1612046840974,245955353598472,301,-1,-24
OrientationDeg,1612046840985,245955363596038,301,-1,-24
OrientationDeg,1612046840995,245955373593571,301,-1,-24
OrientationDeg,1612046841005,245955383591137,301,-1,-24
OrientationDeg,1612046841014,245955393588703,301,-1,-24
OrientationDeg,1612046841025,245955403586269,301,-1,-24
OrientationDeg,1612046841034,245955413583835,301,-1,-24
OrientationDeg,1612046841045,245955423581368,301,-1,-24
OrientationDeg,1612046841054,245955433578934,301,-1,-24
OrientationDeg,1612046841065,245955443576467,301,-1,-24
OrientationDeg,1612046841075,245955453574033,301,-1,-24
OrientationDeg,1612046841085,245955463571599,301,-1,-24
OrientationDeg,1612046841094,245955473569165,301,-1,-24
OrientationDeg,1612046841105,245955483566731,301,-1,-24
OrientationDeg,1612046841115,245955493564297,301,-1,-24
OrientationDeg,1612046841125,245955503561863,301,-1,-24
OrientationDeg,1612046841135,245955513559396,301,-1,-24
OrientationDeg,1612046841145,245955523556962,301,-1,-24
OrientationDeg,1612046841155,245955533554495,301,-1,-24
OrientationDeg,1612046841165,245955543552061,301,-1,-24
OrientationDeg,1612046841175,245955553549627,301,-1,-24
OrientationDeg,1612046841185,245955563547193,301,-1,-24
OrientationDeg,1612046841195,245955573544759,301,-1,-24
OrientationDeg,1612046841205,245955583542325,301,-1,-24
OrientationDeg,1612046841215,245955593539891,301,-1,-24
OrientationDeg,1612046841225,245955603537424,301,-1,-24
OrientationDeg,1612046841235,245955613534990,301,-1,-24
OrientationDeg,1612046841245,245955623532523,301,-1,-24
OrientationDeg,1612046841255,245955633530089,301,-1,-24
OrientationDeg,1612046841264,245955643527655,301,-1,-24
OrientationDeg,1612046841275,245955653525221,301,-1,-24
OrientationDeg,1612046841285,245955663522787,301,-1,-24
OrientationDeg,1612046841295,245955673520353,301,-1,-24
OrientationDeg,1612046841305,245955683517919,301,-1,-24
OrientationDeg,1612046841315,245955693515452,301,-1,-24
OrientationDeg,1612046841325,245955703513018,301,-1,-24
OrientationDeg,1612046841334,245955713510551,301,-1,-24
OrientationDeg,1612046841345,245955723508117,301,-1,-24
OrientationDeg,1612046841355,245955733505683,301,-1,-24
OrientationDeg,1612046841365,245955743503249,301,-1,-24
OrientationDeg,1612046841375,245955753500815,301,-1,-24
OrientationDeg,1612046841385,245955763498348,301,-1,-24
OrientationDeg,1612046841395,245955773495914,301,-1,-24
OrientationDeg,1612046841405,245955783493447,301,-1,-24
OrientationDeg,1612046841415,245955793491013,301,-1,-24