# 
# Header Description:
# 
# Version: v3.0.0.0 Platform: 8.0.0 Manufacturer: samsung Model: SM-G930F
# 
# Raw,utcTimeMillis,TimeNanos,LeapSecond,TimeUncertaintyNanos,FullBiasNanos,BiasNanos,BiasUncertaintyNanos,DriftNanosPerSecond,DriftUncertaintyNanosPerSecond,HardwareClockDiscontinuityCount,Svid,TimeOffsetNanos,State,ReceivedSvTimeNanos,ReceivedSvTimeUncertaintyNanos,Cn0DbHz,PseudorangeRateMetersPerSecond,PseudorangeRateUncertaintyMetersPerSecond,AccumulatedDeltaRangeState,AccumulatedDeltaRangeMeters,AccumulatedDeltaRangeUncertaintyMeters,CarrierFrequencyHz,CarrierCycles,CarrierPhase,CarrierPhaseUncertainty,MultipathIndicator,SnrInDb,ConstellationType,AgcDb,BasebandCn0DbHz,FullInterSignalBiasNanos,FullInterSignalBiasUncertaintyNanos,SatelliteInterSignalBiasNanos,SatelliteInterSignalBiasUncertaintyNanos,CodeType,ChipsetElapsedRealtimeNanos
# 
# UncalAccel,utcTimeMillis,elapsedRealtimeNanos,UncalAccelXMps2,UncalAccelYMps2,UncalAccelZMps2,BiasXMps2,BiasYMps2,BiasZMps2
# 
# UncalGyro,utcTimeMillis,elapsedRealtimeNanos,UncalGyroXRadPerSec,UncalGyroYRadPerSec,UncalGyroZRadPerSec,DriftXRadPerSec,DriftYRadPerSec,DriftZRadPerSec
# 
# UncalMag,utcTimeMillis,elapsedRealtimeNanos,UncalMagXMicroT,UncalMagYMicroT,UncalMagZMicroT,BiasXMicroT,BiasYMicroT,BiasZMicroT
# 
# OrientationDeg,utcTimeMillis,elapsedRealtimeNanos,yawDeg,rollDeg,pitchDeg
# 
# Fix,Provider,LatitudeDegrees,LongitudeDegrees,AltitudeMeters,SpeedMps,AccuracyMeters,BearingDegrees,UnixTimeMillis,SpeedAccuracyMps,BearingAccuracyDegrees,elapsedRealtimeNanos
# 
# Nav,Svid,Type,Status,MessageId,Sub-messageId,Data(Bytes)
# 
# Status,UnixTimeMillis,SignalCount,SignalIndex,ConstellationType,Svid,CarrierFrequencyHz,Cn0DbHz,AzimuthDegrees,ElevationDegrees,UsedInFix,HasAlmanacData,HasEphemerisData,BasebandCn0DbHz
# 
OrientationDeg,1612046520563,245634941519412,1,7,-37
OrientationDeg,1612046520573,245634951516978,1,7,-36
OrientationDeg,1612046520583,245634961514544,1,7,-36
OrientationDeg,1612046520593,245634971512110,1,7,-36
OrientationDeg,1612046520603,245634981509676,1,7,-37
OrientationDeg,1612046520613,245634991507242,1,7,-37
OrientationDeg,1612046520623,245635001504475,1,7,-37
OrientationDeg,1612046520633,245635011502041,1,7,-37
OrientationDeg,1612046520643,245635021499574,1,7,-37
OrientationDeg,1612046520653,245635031497140,1,7,-37
OrientationDeg,1612046520663,245635041494706,1,7,-37
OrientationDeg,1612046520673,245635051492272,1,7,-37
OrientationDeg,1612046520683,245635061489805,1,7,-37
OrientationDeg,1612046520693,245635071487338,1,7,-36
OrientationDeg,1612046520703,245635081484904,1,7,-36
OrientationDeg,1612046520713,245635091482404,1,7,-36
OrientationDeg,1612046520723,245635101479970,1,6,-36
OrientationDeg,1612046520733,245635111475636,1,6,-36
OrientationDeg,1612046520743,245635121472802,1,6,-36
OrientationDeg,1612046520753,245635131469668,1,6,-36
OrientationDeg,1612046520763,245635141467234,1,6,-36
OrientationDeg,1612046520773,245635151464800,1,6,-36
OrientationDeg,1612046520783,245635161462333,1,6,-36
OrientationDeg,1612046520793,245635171459899,1,6,-37
OrientationDeg,1612046520803,245635181457432,1,6,-37
OrientationDeg,1612046520813,245635191454998,1,7,-37
OrientationDeg,1612046520823,245635201452564,1,7,-37
OrientationDeg,1612046520833,245635211450130,1,7,-37
OrientationDeg,1612046520843,245635221447696,1,7,-37
OrientationDeg,1612046520853,245635231445262,1,7,-37
OrientationDeg,1612046520863,245635241443328,1,7,-37
OrientationDeg,1612046520873,245635251440861,1,7,-36
OrientationDeg,1612046520883,245635261438427,1,7,-36
OrientationDeg,1612046520893,245635271469293,1,7,-36
OrientationDeg,1612046520903,245635281500193,1,6,-36
OrientationDeg,1612046520913,245635291531059,1,6,-36
OrientationDeg,1612046520923,245635301561959,1,6,-36
OrientationDeg,1612046520933,245635311592825,1,6,-36
OrientationDeg,1612046520943,245635321623725,1,6,-37
OrientationDeg,1612046520953,245635331654625,1,6,-37
OrientationDeg,1612046520963,245635341685491,1,7,-37
OrientationDeg,1612046520973,245635351716391,1,7,-37
OrientationDeg,1612046520983,245635361747291,1,7,-37
OrientationDeg,1612046520993,245635371778191,1,7,-37
OrientationDeg,1612046521002,245635381809057,1,7,-37
OrientationDeg,1612046521013,245635391839957,1,7,-37
OrientationDeg,1612046521022,245635401870823,1,7,-37
OrientationDeg,1612046521032,245635411901689,1,7,-37
OrientationDeg,1612046521043,245635421932589,1,7,-37
OrientationDeg,1612046521053,245635431963455,1,7,-37
OrientationDeg,1612046521063,245635441994355,1,7,-37
OrientationDeg,1612046521074,245635452025255,1,7,-37
OrientationDeg,1612046521084,245635462056155,1,7,-37
OrientationDeg,1612046521094,245635472087055,1,7,-37
OrientationDeg,1612046521104,245635482117955,1,7,-37
OrientationDeg,1612046521114,245635492148821,1,7,-37
OrientationDeg,1612046521124,245635502179687,1,7,-37
OrientationDeg,1612046521134,245635512210620,1,7,-37
OrientationDeg,1612046521144,245635522241486,1,7,-37
OrientationDeg,1612046521154,245635532272386,1,7,-37
OrientationDeg,1612046521164,245635542336019,1,7,-37
OrientationDeg,1612046521174,245635552400252,1,7,-37
OrientationDeg,1612046521184,245635562464752,1,7,-37
OrientationDeg,1612046521193,245635572495652,1,7,-37
OrientationDeg,1612046521204,245635582526518,1,7,-37
OrientationDeg,1612046521214,245635592557418,1,7,-37
OrientationDeg,1612046521223,245635602588284,1,7,-37
OrientationDeg,1612046521233,245635612619184,1,7,-37
OrientationDeg,1612046521244,245635622650084,1,7,-37
OrientationDeg,1612046521254,245635632680950,1,7,-37
OrientationDeg,1612046521264,245635642711850,1,7,-37
OrientationDeg,1612046521274,245635652742716,1,7,-37
OrientationDeg,1612046521284,245635662773649,1,7,-37
OrientationDeg,1612046521294,245635672804515,1,7,-37
OrientationDeg,1612046521304,245635682835415,1,6,-37
OrientationDeg,1612046521314,245635692866281,1,6,-37
OrientationDeg,1612046521324,245635702897181,1,6,-37
OrientationDeg,1612046521334,245635712928081,1,6,-37
OrientationDeg,1612046521344,245635722958947,1,6,-37
OrientationDeg,1612046521354,245635732989847,1,6,-37
OrientationDeg,1612046521365,245635743020713,1,6,-37
OrientationDeg,1612046521374,245635753051579,1,6,-37
OrientationDeg,1612046521385,245635763082445,1,6,-37
OrientationDeg,1612046521395,245635773113311,1,6,-37
OrientationDeg,1612046521405,245635783144177,1,6,-37
OrientationDeg,1612046521415,245635793175077,1,6,-37
OrientationDeg,1612046521425,245635803205977,1,6,-37
OrientationDeg,1612046521435,245635813236810,1,6,-37
OrientationDeg,1612046521445,245635823267710,1,6,-37
OrientationDeg,1612046521455,245635833298576,1,6,-37
OrientationDeg,1612046521465,245635843296142,1,6,-37
OrientationDeg,1612046521475,245635853293675,1,6,-37
OrientationDeg,1612046521485,245635863290941,1,6,-37
OrientationDeg,1612046521495,245635873288474,1,6,-37
OrientationDeg,1612046521505,245635883286040,1,6,-37
OrientationDeg,1612046521515,245635893283606,1,6,-37
OrientationDeg,1612046521525,245635903281172,1,6,-37
OrientationDeg,1612046521535,245635913278738,1,6,-37
OrientationDeg,1612046521545,245635923276271,1,6,-37
OrientationDeg,1612046521555,245635933273837,1,6,-37
OrientationDeg,1612046521565,245635943271370,1,6,-37
OrientationDeg,1612046521575,245635953268936,1,6,-37
OrientationDeg,1612046521585,245635963266736,1,6,-37
OrientationDeg,1612046521595,245635973264302,1,6,-37
OrientationDeg,1612046521605,245635983261868,1,6,-37
OrientationDeg,1612046521615,245635993259534,1,6,-37
OrientationDeg,1612046521625,245636003257100,1,6,-37
OrientationDeg,1612046521635,245636013254633,1,6,-37
OrientationDeg,1612046521645,245636023252233,1,6,-37
OrientationDeg,1612046521654,245636033249766,1,6,-37
OrientationDeg,1612046521665,245636043247332,1,6,-37
OrientationDeg,1612046521675,245636053244898,1,6,-37
OrientationDeg,1612046521685,245636063242464,1,6,-37
OrientationDeg,1612046521695,245636073240030,1,6,-37
OrientationDeg,1612046521705,245636083237596,1,6,-37
OrientationDeg,1612046521714,245636093235162,1,6,-37
OrientationDeg,1612046521725,245636103232695,1,6,-37
OrientationDeg,1612046521735,245636113230028,1,6,-37
OrientationDeg,1612046521745,245636123227561,1,6,-37
OrientationDeg,1612046521755,245636133225127,1,6,-37
OrientationDeg,1612046521764,245636143222693,1,6,-37
OrientationDeg,1612046521775,245636153220259,1,6,-37
OrientationDeg,1612046521785,245636163217825,1,6,-37
OrientationDeg,1612046521795,245636173215391,1,6,-37
OrientationDeg,1612046521805,245636183212957,1,6,-37
OrientationDeg,1612046521815,245636193210490,1,6,-37
OrientationDeg,1612046521824,245636203208090,1,6,-37
OrientationDeg,1612046521835,245636213205623,1,6,-37
OrientationDeg,1612046521845,245636223203189,1,6,-37
OrientationDeg,1612046521855,245636233199755,1,6,-37
OrientationDeg,1612046521864,245636243197321,1,6,-37
OrientationDeg,1612046521874,245636253194887,1,6,-37
OrientationDeg,1612046521885,245636263191920,1,6,-37
OrientationDeg,1612046521895,245636273189486,1,6,-37
OrientationDeg,1612046521904,245636283187019,1,6,-37
OrientationDeg,1612046521914,245636293184485,1,6,-37
OrientationDeg,1612046521925,245636303182018,1,6,-37
OrientationDeg,1612046521935,245636313179584,1,6,-37
OrientationDeg,1612046521945,245636323177117,1,6,-37
OrientationDeg,1612046521955,245636333174683,1,6,-37
OrientationDeg,1612046521965,245636343172249,1,6,-37
OrientationDeg,1612046521975,245636353169815,1,6,-37
OrientationDeg,1612046521985,245636363167381,1,6,-37
OrientationDeg,1612046521995,245636373164914,1,6,-37
OrientationDeg,1612046522005,245636383161314,1,6,-37
OrientationDeg,1612046522015,245636393158880,1,6,-37
OrientationDeg,1612046522025,245636403156446,1,6,-37
OrientationDeg,1612046522034,245636413154279,1,6,-37
OrientationDeg,1612046522045,245636423151845,1,6,-37
OrientationDeg,1612046522054,245636433149411,1,6,-37
OrientationDeg,1612046522065,245636443147011,1,6,-37
OrientationDeg,1612046522075,245636453144944,1,6,-37
OrientationDeg,1612046522085,245636463142477,1,6,-37
OrientationDeg,1612046522095,245636473140043,1,6,-37
OrientationDeg,1612046522105,245636483137609,1,6,-37
OrientationDeg,1612046522115,245636493135175,1,6,-37
OrientationDeg,1612046522125,245636503166008,1,6,-37
OrientationDeg,1612046522134,245636513196908,1,6,-37
OrientationDeg,1612046522144,245636523227808,1,6,-37
OrientationDeg,1612046522154,245636533259674,1,6,-37
OrientationDeg,1612046522165,245636543290574,1,6,-37
OrientationDeg,1612046522175,245636553321440,1,6,-37
OrientationDeg,1612046522185,245636563352606,1,6,-37
OrientationDeg,1612046522195,245636573383472,1,6,-37
OrientationDeg,1612046522205,245636583414372,1,6,-37
OrientationDeg,1612046522215,245636593445238,1,6,-37
OrientationDeg,1612046522225,245636603476138,1,6,-37
OrientationDeg,1612046522235,245636613507038,1,6,-37
OrientationDeg,1612046522245,245636623539304,1,6,-37
OrientationDeg,1612046522254,245636633570204,1,6,-37
OrientationDeg,1612046522264,245636643601070,1,6,-37
OrientationDeg,1612046522275,245636653632003,1,6,-37
OrientationDeg,1612046522285,245636663662869,1,6,-37
OrientationDeg,1612046522295,245636673693769,1,6,-37
OrientationDeg,1612046522305,245636683724735,1,6,-37
OrientationDeg,1612046522315,245636693755601,1,6,-37
OrientationDeg,1612046522325,245636703786501,1,6,-37
OrientationDeg,1612046522335,245636713817334,1,6,-37
OrientationDeg,1612046522345,245636723848267,1,6,-37
OrientationDeg,1612046522355,245636733879133,0,6,-37
OrientationDeg,1612046522364,245636743909999,0,6,-37
OrientationDeg,1612046522375,245636753940499,0,6,-37
OrientationDeg,1612046522385,245636763971399,0,6,-37
OrientationDeg,1612046522396,245636774002299,0,6,-37
OrientationDeg,1612046522406,245636784033165,0,6,-37
OrientationDeg,1612046522416,245636794064065,0,6,-37
OrientationDeg,1612046522426,245636804061631,0,6,-37
OrientationDeg,1612046522436,245636814059197,0,6,-37
OrientationDeg,1612046522446,245636824056730,0,6,-37
OrientationDeg,1612046522456,245636834054296,0,6,-37
OrientationDeg,1612046522466,245636844051829,0,6,-37
OrientationDeg,1612046522476,245636854049395,0,6,-37
OrientationDeg,1612046522486,245636864045761,0,6,-37
OrientationDeg,1612046522496,245636874043327,0,6,-37
OrientationDeg,1612046522506,245636884040893,0,6,-37
OrientationDeg,1612046522516,245636894038459,0,6,-37
OrientationDeg,1612046522526,245636904036025,0,6,-37
OrientationDeg,1612046522535,245636914033558,0,6,-37
OrientationDeg,1612046522546,245636924029791,0,6,-37
OrientationDeg,1612046522556,245636934027324,0,6,-37
OrientationDeg,1612046522566,245636944024890,0,6,-37
OrientationDeg,1612046522576,245636954022423,0,6,-37
OrientationDeg,1612046522586,245636964019989,0,6,-37
OrientationDeg,1612046522596,245636974017555,0,6,-37
OrientationDeg,1612046522606,245636984016188,0,6,-37
OrientationDeg,1612046522616,245636994013754,0,6,-37
OrientationDeg,1612046522626,245637004011287,0,6,-37
OrientationDeg,1612046522636,245637014008853,0,6,-37
OrientationDeg,1612046522646,245637024006386,0,6,-37
OrientationDeg,1612046522656,245637034003952,0,6,-37
OrientationDeg,1612046522666,245637044001518,0,6,-37
OrientationDeg,1612046522675,245637053999084,0,6,-37
OrientationDeg,1612046522685,245637063996650,0,6,-37
OrientationDeg,1612046522695,245637073994250,0,6,-37
OrientationDeg,1612046522705,245637083991816,0,6,-37
OrientationDeg,1612046522714,245637093989349,0,6,-37
OrientationDeg,1612046522725,245637103988382,0,6,-37
OrientationDeg,1612046522735,245637113985915,0,6,-37
OrientationDeg,1612046522745,245637123983481,0,6,-37
OrientationDeg,1612046522755,245637133981047,0,6,-37
OrientationDeg,1612046522765,245637143978613,0,6,-37
OrientationDeg,1612046522775,245637153976179,0,6,-37
OrientationDeg,1612046522785,245637163974879,0,6,-37
OrientationDeg,1612046522794,245637173972445,0,6,-37
OrientationDeg,1612046522805,245637183969978,0,6,-37
OrientationDeg,1612046522815,245637193967578,0,6,-37
OrientationDeg,1612046522825,245637203965144,0,6,-37
OrientationDeg,1612046522835,245637213962710,0,6,-37
OrientationDeg,1612046522845,245637223960243,0,6,-37
OrientationDeg,1612046522855,245637233957809,0,6,-37
OrientationDeg,1612046522865,245637243955375,0,6,-37
OrientationDeg,1612046522875,245637253952875,0,6,-37
OrientationDeg,1612046522885,245637263950441,0,6,-37
OrientationDeg,1612046522895,245637273947974,0,6,-37
OrientationDeg,1612046522905,245637283945607,0,6,-37
OrientationDeg,1612046522915,245637293943173,0,6,-37
OrientationDeg,1612046522925,245637303940739,0,6,-37
OrientationDeg,1612046522935,245637313938305,0,6,-37
OrientationDeg,1612046522945,245637323935838,0,6,-37
OrientationDeg,1612046522955,245637333933404,0,6,-37
OrientationDeg,1612046522964,245637343930904,0,6,-37
OrientationDeg,1612046522975,245637353928470,0,6,-37
OrientationDeg,1612046522985,245637363926003,0,6,-37
OrientationDeg,1612046522995,245637373923536,0,6,-37
OrientationDeg,1612046523005,245637383921102,0,6,-37
OrientationDeg,1612046523014,245637393918668,0,6,-37
OrientationDeg,1612046523025,245637403916534,0,6,-37
OrientationDeg,1612046523035,245637413914100,0,6,-37
OrientationDeg,1612046523045,245637423911666,0,6,-37
OrientationDeg,1612046523055,245637433908066,0,6,-37
OrientationDeg,1612046523065,245637443905632,0,6,-37
OrientationDeg,1612046523075,245637453936532,0,6,-37
OrientationDeg,1612046523085,245637463967465,0,6,-37
OrientationDeg,1612046523095,245637473998331,0,6,-37
OrientationDeg,1612046523106,245637484029231,0,6,-37
OrientationDeg,1612046523116,245637494060131,0,6,-37
OrientationDeg,1612046523126,245637504090997,0,6,-37
OrientationDeg,1612046523136,245637514121897,0,6,-37
OrientationDeg,1612046523146,245637524153030,0,6,-37
OrientationDeg,1612046523156,245637534184330,0,6,-37
OrientationDeg,1612046523165,245637544215196,0,6,-37
OrientationDeg,1612046523176,245637554246096,0,6,-37
OrientationDeg,1612046523186,245637564276962,0,6,-37
OrientationDeg,1612046523196,245637574307862,0,6,-37
OrientationDeg,1612046523205,245637584338695,0,6,-37
OrientationDeg,1612046523216,245637594369561,0,6,-37
OrientationDeg,1612046523226,245637604400461,0,6,-37
OrientationDeg,1612046523236,245637614431327,0,6,-37
OrientationDeg,1612046523246,245637624462227,0,6,-37
OrientationDeg,1612046523256,245637634493093,0,6,-37
OrientationDeg,1612046523266,245637644523993,0,6,-37
OrientationDeg,1612046523276,245637654554859,0,6,-37
OrientationDeg,1612046523286,245637664585759,0,6,-37
OrientationDeg,1612046523296,245637674616625,0,6,-37
OrientationDeg,1612046523306,245637684647491,0,6,-37
OrientationDeg,1612046523316,245637694678391,0,6,-37
OrientationDeg,1612046523326,245637704707557,0,6,-37
OrientationDeg,1612046523336,245637714738457,0,6,-37
OrientationDeg,1612046523346,245637724769323,0,6,-37
OrientationDeg,1612046523356,245637734801356,0,6,-37
OrientationDeg,1612046523366,245637744832222,0,6,-37
OrientationDeg,1612046523376,245637754829755,0,6,-37
OrientationDeg,1612046523386,245637764827255,0,6,-37
OrientationDeg,1612046523396,245637774824821,0,6,-37
OrientationDeg,1612046523406,245637784822387,0,6,-37
OrientationDeg,1612046523416,245637794819920,0,6,-37
OrientationDeg,1612046523426,245637804817486,0,6,-37
OrientationDeg,1612046523436,245637814815352,0,6,-37
OrientationDeg,1612046523446,245637824812618,0,6,-37
OrientationDeg,1612046523456,245637834809851,0,6,-37
OrientationDeg,1612046523466,245637844807417,0,6,-37
OrientationDeg,1612046523476,245637854804750,0,6,-37
OrientationDeg,1612046523486,245637864802316,0,6,-37
OrientationDeg,1612046523496,245637874799916,0,6,-37
OrientationDeg,1612046523506,245637884797482,0,6,-37
OrientationDeg,1612046523516,245637894795048,0,6,-37
OrientationDeg,1612046523526,245637904792581,0,6,-37
OrientationDeg,1612046523536,245637914790181,0,6,-37
OrientationDeg,1612046523546,245637924787714,0,6,-37
OrientationDeg,1612046523556,245637934785280,0,6,-37
OrientationDeg,1612046523566,245637944782846,0,6,-38
OrientationDeg,1612046523576,245637954780412,0,6,-38
OrientationDeg,1612046523586,245637964777978,0,6,-38
OrientationDeg,1612046523596,245637974775511,0,6,-38
OrientationDeg,1612046523606,245637984773077,0,6,-38
OrientationDeg,1612046523616,245637994770610,0,6,-38
OrientationDeg,1612046523626,245638004768110,0,6,-38
OrientationDeg,1612046523636,245638014765676,0,6,-38
OrientationDeg,1612046523646,245638024763242,0,6,-38
OrientationDeg,1612046523656,245638034760808,0,6,-38
OrientationDeg,1612046523666,245638044758374,0,6,-37
OrientationDeg,1612046523676,245638054755940,0,6,-37
OrientationDeg,1612046523685,245638064753473,0,6,-37
OrientationDeg,1612046523696,245638074751039,0,6,-37
OrientationDeg,1612046523706,245638084748572,0,6,-37
OrientationDeg,1612046523716,245638094746105,0,6,-37
OrientationDeg,1612046523726,245638104743671,0,6,-37
OrientationDeg,1612046523736,245638114740904,0,6,-37
OrientationDeg,1612046523746,245638124738504,0,6,-37
OrientationDeg,1612046523756,245638134735970,0,6,-37
OrientationDeg,1612046523766,245638144733536,0,6,-37
OrientationDeg,1612046523776,245638154731302,0,6,-37
OrientationDeg,1612046523786,245638164728868,0,6,-37
OrientationDeg,1612046523796,245638174726368,0,6,-37
OrientationDeg,1612046523806,245638184723901,0,6,-37
OrientationDeg,1612046523816,245638194721467,0,6,-37
OrientationDeg,1612046523826,245638204719033,0,6,-37
OrientationDeg,1612046523836,245638214716599,0,6,-37
OrientationDeg,1612046523845,245638224714165,0,6,-37
OrientationDeg,1612046523856,245638234711731,0,6,-37
OrientationDeg,1612046523866,245638244709264,0,6,-37
OrientationDeg,1612046523876,245638254706830,0,6,-37
OrientationDeg,1612046523886,245638264704363,0,6,-37
OrientationDeg,1612046523896,245638274701963,0,6,-37
OrientationDeg,1612046523906,245638284699529,0,6,-37
OrientationDeg,1612046523915,245638294697095,0,6,-37
OrientationDeg,1612046523926,245638304694695,0,6,-37
OrientationDeg,1612046523936,245638314692228,0,6,-37
OrientationDeg,1612046523946,245638324689794,0,6,-37
OrientationDeg,1612046523956,245638334687394,0,6,-37
OrientationDeg,1612046523966,245638344684960,0,6,-37
OrientationDeg,1612046523976,245638354682526,0,6,-37
OrientationDeg,1612046523986,245638364679026,0,6,-37
OrientationDeg,1612046523996,245638374676592,0,6,-37
OrientationDeg,1612046524006,245638384674158,0,6,-37
OrientationDeg,1612046524016,245638394671791,0,6,-37
OrientationDeg,1612046524026,245638404669324,0,6,-37
OrientationDeg,1612046524036,245638414666890,0,6,-37
OrientationDeg,1612046524046,245638424664390,0,6,-37
OrientationDeg,1612046524056,245638434661956,0,6,-37
OrientationDeg,1612046524066,245638444659522,0,6,-37
OrientationDeg,1612046524076,245638454657188,0,6,-37
OrientationDeg,1612046524086,245638464654754,0,6,-37
OrientationDeg,1612046524096,245638474652320,0,6,-37
OrientationDeg,1612046524106,245638484649920,0,6,-37
OrientationDeg,1612046524116,245638494647453,0,6,-37
OrientationDeg,1612046524126,245638504645019,0,6,-37
OrientationDeg,1612046524136,245638514642585,0,6,-37
OrientationDeg,1612046524146,245638524640151,0,6,-37
OrientationDeg,1612046524156,245638534637717,0,6,-37
OrientationDeg,1612046524166,245638544635283,0,6,-37
OrientationDeg,1612046524176,245638554632849,0,6,-37
OrientationDeg,1612046524186,245638564630415,0,6,-37
OrientationDeg,1612046524196,245638574627948,0,6,-37
OrientationDeg,1612046524206,245638584625481,0,6,-37
OrientationDeg,1612046524216,245638594623047,0,6,-37
OrientationDeg,1612046524226,245638604620547,0,6,-37
OrientationDeg,1612046524236,245638614618113,0,6,-37
OrientationDeg,1612046524246,245638624615679,0,6,-37
OrientationDeg,1612046524256,245638634613179,0,6,-37
OrientationDeg,1612046524266,245638644644079,0,6,-37
OrientationDeg,1612046524276,245638654674945,0,6,-37
OrientationDeg,1612046524286,245638664706911,0,6,-37
OrientationDeg,1612046524296,245638674737777,0,6,-37
OrientationDeg,1612046524306,245638684768677,0,6,-37
OrientationDeg,1612046524316,245638694798277,0,6,-37
OrientationDeg,1612046524326,245638704829210,0,6,-37
OrientationDeg,1612046524336,245638714860076,0,6,-37
OrientationDeg,1612046524346,245638724891276,0,6,-37
OrientationDeg,1612046524356,245638734922142,0,6,-37
OrientationDeg,1612046524366,245638744955775,0,6,-37
OrientationDeg,1612046524376,245638754986608,0,6,-37
OrientationDeg,1612046524387,245638765017474,0,6,-37
OrientationDeg,1612046524397,245638775048374,0,6,-37
OrientationDeg,1612046524406,245638785079240,0,6,-37
OrientationDeg,1612046524417,245638795110140,0,6,-37
OrientationDeg,1612046524427,245638805141006,0,6,-37
OrientationDeg,1612046524437,245638815174372,0,6,-37
OrientationDeg,1612046524447,245638825205272,0,6,-37
OrientationDeg,1612046524457,245638835236138,0,6,-37
OrientationDeg,1612046524467,245638845267071,0,6,-37
OrientationDeg,1612046524477,245638855297937,0,6,-37
OrientationDeg,1612046524487,245638865328837,0,6,-37
OrientationDeg,1612046524497,245638875359703,0,6,-37
OrientationDeg,1612046524507,245638885390603,0,6,-37
OrientationDeg,1612046524517,245638895421469,0,6,-37
OrientationDeg,1612046524527,245638905452369,0,6,-37
OrientationDeg,1612046524537,245638915483269,0,6,-37
OrientationDeg,1612046524547,245638925514135,0,6,-37
OrientationDeg,1612046524556,245638935545035,0,6,-37
OrientationDeg,1612046524567,245638945542568,0,6,-37
OrientationDeg,1612046524577,245638955540134,0,6,-37
OrientationDeg,1612046524587,245638965537734,0,6,-37
OrientationDeg,1612046524597,245638975535300,0,6,-37
OrientationDeg,1612046524607,245638985532833,0,6,-37
OrientationDeg,1612046524617,245638995531633,0,6,-37
OrientationDeg,1612046524627,245639005529166,0,6,-37
OrientationDeg,1612046524637,245639015526732,0,6,-37
OrientationDeg,1612046524646,245639025524065,0,6,-37
OrientationDeg,1612046524657,245639035521631,0,6,-37
OrientationDeg,1612046524667,245639045516431,0,6,-37
OrientationDeg,1612046524677,245639055513931,0,6,-37
OrientationDeg,1612046524687,245639065511497,0,6,-37
OrientationDeg,1612046524697,245639075509030,0,6,-37
OrientationDeg,1612046524707,245639085506663,0,6,-37
OrientationDeg,1612046524717,245639095504229,0,6,-37
OrientationDeg,1612046524727,245639105535162,0,6,-37
OrientationDeg,1612046524737,245639115563495,0,6,-37
OrientationDeg,1612046524747,245639125594361,0,6,-36
OrientationDeg,1612046524757,245639135625261,0,6,-36
OrientationDeg,1612046524766,245639145656094,0,6,-36
OrientationDeg,1612046524777,245639155686994,0,6,-36
OrientationDeg,1612046524787,245639165717860,0,6,-36
OrientationDeg,1612046524797,245639175748760,0,6,-36
OrientationDeg,1612046524807,245639185779626,0,6,-36
OrientationDeg,1612046524816,245639195810526,0,6,-36
OrientationDeg,1612046524827,245639205841459,0,6,-36
OrientationDeg,1612046524837,245639215872325,0,6,-36
OrientationDeg,1612046524847,245639225903225,0,6,-36
OrientationDeg,1612046524857,245639235934158,0,6,-36
OrientationDeg,1612046524867,245639245965058,0,6,-36
OrientationDeg,1612046524877,245639255995924,0,6,-35
OrientationDeg,1612046524888,245639266026790,0,6,-35
OrientationDeg,1612046524898,245639276057656,0,6,-35
OrientationDeg,1612046524908,245639286088589,0,6,-35
OrientationDeg,1612046524918,245639296119489,0,6,-35
OrientationDeg,1612046524928,245639306150355,0,6,-35
OrientationDeg,1612046524938,245639316181255,0,6,-35
OrientationDeg,1612046524947,245639326212055,0,6,-35
OrientationDeg,1612046524958,245639336242955,0,6,-35
OrientationDeg,1612046524968,245639346273821,0,6,-35
OrientationDeg,1612046524978,245639356304787,359,6,-35
OrientationDeg,1612046524988,245639366335653,0,6,-35
OrientationDeg,1612046524998,245639376366553,0,6,-35
OrientationDeg,1612046525008,245639386397353,0,6,-35
OrientationDeg,1612046525018,245639396428219,0,6,-35
OrientationDeg,1612046525028,245639406425752,0,6,-35
OrientationDeg,1612046525038,245639416423318,0,6,-35
OrientationDeg,1612046525048,245639426420884,0,6,-35
OrientationDeg,1612046525058,245639436418417,0,6,-35
OrientationDeg,1612046525068,245639446415983,0,6,-35
OrientationDeg,1612046525077,245639456413516,0,6,-35
OrientationDeg,1612046525088,245639466411082,0,6,-34
OrientationDeg,1612046525098,245639476408648,0,6,-34
OrientationDeg,1612046525108,245639486406214,0,6,-34
OrientationDeg,1612046525117,245639496403780,1,6,-33
OrientationDeg,1612046525128,245639506401280,1,7,-33
OrientationDeg,1612046525138,245639516398846,1,7,-32
OrientationDeg,1612046525148,245639526396379,1,7,-32
OrientationDeg,1612046525158,245639536393879,1,7,-31
OrientationDeg,1612046525168,245639546391412,1,7,-31
OrientationDeg,1612046525178,245639556388978,1,7,-30
OrientationDeg,1612046525188,245639566386511,1,7,-30
OrientationDeg,1612046525198,245639576384077,1,7,-30
OrientationDeg,1612046525208,245639586381610,1,6,-29
OrientationDeg,1612046525218,245639596379110,1,6,-29
OrientationDeg,1612046525228,245639606376676,0,6,-29
OrientationDeg,1612046525237,245639616374209,0,6,-29
OrientationDeg,1612046525247,245639626371842,359,6,-28
OrientationDeg,1612046525258,245639636369408,359,6,-28
OrientationDeg,1612046525268,245639646366974,358,6,-28
OrientationDeg,1612046525278,245639656364507,358,5,-28
OrientationDeg,1612046525288,245639666362073,357,5,-28
OrientationDeg,1612046525298,245639676359639,356,5,-28
OrientationDeg,1612046525308,245639686359539,356,5,-27
OrientationDeg,1612046525318,245639696357105,355,5,-27
OrientationDeg,1612046525328,245639706354638,355,4,-27
OrientationDeg,1612046525338,245639716352204,354,4,-28
OrientationDeg,1612046525348,245639726349770,354,4,-28
OrientationDeg,1612046525358,245639736347336,353,4,-28
OrientationDeg,1612046525368,245639746344902,353,4,-28
OrientationDeg,1612046525377,245639756342468,352,4,-28
OrientationDeg,1612046525388,245639766340034,352,4,-29
OrientationDeg,1612046525398,245639776337567,352,3,-29
OrientationDeg,1612046525408,245639786335133,351,3,-29
OrientationDeg,1612046525418,245639796332666,351,3,-29
OrientationDeg,1612046525428,245639806330266,351,3,-29
OrientationDeg,1612046525438,245639816328166,350,2,-29
OrientationDeg,1612046525448,245639826325732,350,2,-29
OrientationDeg,1612046525458,245639836323298,350,2,-29
OrientationDeg,1612046525468,245639846320864,349,2,-29
OrientationDeg,1612046525478,245639856318430,349,1,-29
OrientationDeg,1612046525487,245639866315996,348,1,-29
OrientationDeg,1612046525498,245639876313596,348,1,-28
OrientationDeg,1612046525508,245639886311129,347,0,-28
OrientationDeg,1612046525518,245639896308695,347,0,-28
OrientationDeg,1612046525528,245639906306261,346,0,-28
OrientationDeg,1612046525538,245639916303894,346,0,-28
OrientationDeg,1612046525548,245639926301394,346,0,-28
OrientationDeg,1612046525558,245639936298927,345,0,-28
OrientationDeg,1612046525568,245639946296493,345,0,-27
OrientationDeg,1612046525578,245639956293993,345,0,-27
OrientationDeg,1612046525588,245639966291559,344,0,-27
OrientationDeg,1612046525598,245639976289192,344,0,-27
OrientationDeg,1612046525607,245639986284392,344,0,-27
OrientationDeg,1612046525618,245639996281958,343,0,-27
OrientationDeg,1612046525628,245640006279524,343,0,-28
OrientationDeg,1612046525638,245640016277090,342,0,-28
OrientationDeg,1612046525648,245640026274623,342,0,-28
OrientationDeg,1612046525658,245640036305523,342,0,-28
OrientationDeg,1612046525668,245640046336389,341,0,-28
OrientationDeg,1612046525678,245640056367289,341,0,-28
OrientationDeg,1612046525688,245640066398189,340,0,-28
OrientationDeg,1612046525698,245640076429089,340,0,-28
OrientationDeg,1612046525708,245640086459955,340,0,-28
OrientationDeg,1612046525718,245640096490855,339,0,-28
OrientationDeg,1612046525728,245640106521721,339,0,-28
OrientationDeg,1612046525738,245640116552254,338,0,-28
OrientationDeg,1612046525748,245640126583154,338,0,-28
OrientationDeg,1612046525758,245640136614020,337,0,-27
OrientationDeg,1612046525768,245640146644920,337,0,-27
OrientationDeg,1612046525778,245640156675786,336,0,-27
OrientationDeg,1612046525788,245640166706652,335,0,-27
OrientationDeg,1612046525798,245640176737485,334,0,-26
OrientationDeg,1612046525808,245640186768385,333,0,-26
OrientationDeg,1612046525818,245640196799285,332,1,-26
OrientationDeg,1612046525828,245640206830151,331,1,-26
OrientationDeg,1612046525838,245640216861051,329,1,-26
OrientationDeg,1612046525848,245640226891917,329,1,-26
OrientationDeg,1612046525858,245640236922817,328,1,-26
OrientationDeg,1612046525867,245640246953683,328,1,-26
OrientationDeg,1612046525878,245640256984583,328,1,-27
OrientationDeg,1612046525889,245640267015783,328,0,-27
OrientationDeg,1612046525899,245640277046649,328,0,-27
OrientationDeg,1612046525909,245640287077549,328,0,-27
OrientationDeg,1612046525919,245640297108415,329,0,-28
OrientationDeg,1612046525929,245640307139315,329,0,-28
OrientationDeg,1612046525939,245640317170481,329,0,-28
OrientationDeg,1612046525949,245640327201381,329,0,-28
OrientationDeg,1612046525959,245640337198914,329,0,-28
OrientationDeg,1612046525969,245640347196480,329,0,-28
OrientationDeg,1612046525978,245640357194046,330,0,-28
OrientationDeg,1612046525989,245640367191579,330,0,-28
OrientationDeg,1612046525999,245640377189145,331,0,-28
OrientationDeg,1612046526009,245640387186711,331,0,-28
OrientationDeg,1612046526018,245640397184277,332,0,-28
OrientationDeg,1612046526028,245640407181810,333,0,-28
OrientationDeg,1612046526039,245640417179376,333,0,-28
OrientationDeg,1612046526049,245640427176909,334,0,-28
OrientationDeg,1612046526059,245640437174475,335,0,-29
OrientationDeg,1612046526069,245640447172041,336,0,-29
OrientationDeg,1612046526078,245640457169607,336,0,-29
OrientationDeg,1612046526089,245640467167173,337,0,-29
OrientationDeg,1612046526099,245640477164739,338,0,-29
OrientationDeg,1612046526109,245640487162305,339,0,-28
OrientationDeg,1612046526119,245640497159838,340,0,-28
OrientationDeg,1612046526129,245640507157404,341,0,-28
OrientationDeg,1612046526139,245640517154937,342,0,-28
OrientationDeg,1612046526149,245640527152503,343,0,-28
OrientationDeg,1612046526159,245640537150069,344,0,-28
OrientationDeg,1612046526169,245640547147635,345,0,-28
OrientationDeg,1612046526179,245640557145201,346,0,-28
OrientationDeg,1612046526189,245640567142434,347,0,-27
OrientationDeg,1612046526199,245640577139934,348,0,-27
OrientationDeg,1612046526209,245640587137467,349,0,-28
OrientationDeg,1612046526219,245640597135033,350,0,-28
OrientationDeg,1612046526229,245640607132566,351,0,-28
OrientationDeg,1612046526239,245640617129832,352,0,-28
OrientationDeg,1612046526249,245640627127398,353,1,-28
OrientationDeg,1612046526259,245640637124964,354,1,-28
OrientationDeg,1612046526269,245640647122530,356,1,-27
OrientationDeg,1612046526279,245640657120063,357,1,-27
OrientationDeg,1612046526289,245640667117629,358,1,-27
OrientationDeg,1612046526299,245640677115162,359,1,-27
OrientationDeg,1612046526309,245640687112728,0,2,-27
OrientationDeg,1612046526319,245640697110361,1,2,-27
OrientationDeg,1612046526329,245640707107927,2,2,-27
OrientationDeg,1612046526338,245640717105493,3,2,-27
OrientationDeg,1612046526349,245640727103059,4,2,-27
OrientationDeg,1612046526359,245640737100625,6,2,-27
OrientationDeg,1612046526369,245640747098158,7,2,-27
OrientationDeg,1612046526379,245640757095724,8,2,-27
OrientationDeg,1612046526389,245640767093257,9,3,-27
OrientationDeg,1612046526398,245640777090823,10,3,-27
OrientationDeg,1612046526409,245640787088389,11,3,-27
OrientationDeg,1612046526418,245640797085955,11,3,-27
OrientationDeg,1612046526429,245640807083521,12,3,-27
OrientationDeg,1612046526439,245640817081021,13,4,-26
OrientationDeg,1612046526449,245640827078587,13,4,-26
OrientationDeg,1612046526459,245640837076120,14,4,-26
OrientationDeg,1612046526469,245640847073686,14,4,-25
OrientationDeg,1612046526479,245640857071219,15,4,-25
OrientationDeg,1612046526489,245640867068785,15,4,-25
OrientationDeg,1612046526499,245640877066351,15,5,-24
OrientationDeg,1612046526509,245640887063917,15,5,-24
OrientationDeg,1612046526519,245640897061483,15,5,-24
OrientationDeg,1612046526529,245640907059049,16,5,-23
OrientationDeg,1612046526539,245640917056615,16,5,-23
OrientationDeg,1612046526548,245640927054148,15,5,-23
OrientationDeg,1612046526559,245640937051714,15,5,-23
OrientationDeg,1612046526569,245640947049247,15,5,-22
OrientationDeg,1612046526579,245640957046813,15,5,-22
OrientationDeg,1612046526589,245640967044379,15,5,-22
OrientationDeg,1612046526599,245640977041945,15,5,-22
OrientationDeg,1612046526609,245640987039578,15,5,-21
OrientationDeg,1612046526619,245640997037044,15,4,-21
OrientationDeg,1612046526629,245641007034610,15,4,-21
OrientationDeg,1612046526639,245641017032143,15,4,-21
OrientationDeg,1612046526649,245641027029709,15,4,-21
OrientationDeg,1612046526658,245641037027242,15,4,-21
OrientationDeg,1612046526669,245641047024808,15,4,-21
OrientationDeg,1612046526679,245641057022374,15,4,-21
OrientationDeg,1612046526689,245641067019940,15,4,-21
OrientationDeg,1612046526699,245641077017506,15,4,-22
OrientationDeg,1612046526709,245641087015039,15,4,-22
OrientationDeg,1612046526719,245641097012605,15,4,-22
OrientationDeg,1612046526728,245641107010138,15,4,-22
OrientationDeg,1612046526739,245641117007704,15,4,-22
OrientationDeg,1612046526749,245641127005270,15,4,-22
OrientationDeg,1612046526759,245641137002836,15,4,-22
OrientationDeg,1612046526769,245641147000402,15,4,-22
OrientationDeg,1612046526778,245641156997968,15,4,-23
OrientationDeg,1612046526788,245641166995534,15,4,-23
OrientationDeg,1612046526798,245641176993067,16,4,-23
OrientationDeg,1612046526808,245641186990633,16,4,-23
OrientationDeg,1612046526818,245641196988166,16,5,-23
OrientationDeg,1612046526828,245641206985732,16,5,-23
OrientationDeg,1612046526837,245641216983298,16,5,-23
OrientationDeg,1612046526848,245641226980864,16,5,-23
OrientationDeg,1612046526858,245641236978464,16,5,-23
OrientationDeg,1612046526868,245641246976030,17,5,-23
OrientationDeg,1612046526878,245641256973596,17,5,-23
OrientationDeg,1612046526888,245641266971196,17,5,-23
OrientationDeg,1612046526898,245641276968762,17,4,-23
OrientationDeg,1612046526907,245641286966228,17,4,-22
OrientationDeg,1612046526918,245641296963861,17,4,-22
OrientationDeg,1612046526928,245641306961427,17,4,-22
OrientationDeg,1612046526938,245641316958993,17,4,-22
OrientationDeg,1612046526948,245641326956559,17,4,-22
OrientationDeg,1612046526958,245641336954125,17,4,-22
OrientationDeg,1612046526968,245641346951691,17,4,-22
OrientationDeg,1612046526978,245641356949257,17,4,-22
OrientationDeg,1612046526987,245641366946823,16,5,-22
OrientationDeg,1612046526998,245641376944356,16,5,-22
OrientationDeg,1612046527008,245641386941922,16,5,-22
OrientationDeg,1612046527018,245641396972822,16,5,-22
OrientationDeg,1612046527029,245641407003722,16,5,-22
OrientationDeg,1612046527039,245641417034588,16,5,-22
OrientationDeg,1612046527049,245641427065454,16,4,-23
OrientationDeg,1612046527059,245641437096354,16,4,-23
OrientationDeg,1612046527069,245641447127220,16,4,-23
OrientationDeg,1612046527079,245641457158120,16,4,-23
OrientationDeg,1612046527089,245641467188986,15,4,-23
OrientationDeg,1612046527099,245641477219952,15,4,-23
OrientationDeg,1612046527109,245641487250818,15,4,-23
OrientationDeg,1612046527119,245641497281718,15,4,-23
OrientationDeg,1612046527129,245641507312651,15,4,-23
OrientationDeg,1612046527139,245641517343517,15,4,-23
OrientationDeg,1612046527149,245641527374417,15,4,-23
OrientationDeg,1612046527159,245641537405317,15,4,-23
OrientationDeg,1612046527169,245641547436217,15,4,-23
OrientationDeg,1612046527178,245641557467083,15,4,-23
OrientationDeg,1612046527189,245641567531283,15,4,-23
OrientationDeg,1612046527199,245641577595483,15,4,-23
OrientationDeg,1612046527209,245641587659716,15,4,-23
OrientationDeg,1612046527219,245641597723849,15,4,-23
OrientationDeg,1612046527229,245641607788049,15,4,-23
OrientationDeg,1612046527239,245641617852249,15,4,-23
OrientationDeg,1612046527249,245641627916449,15,4,-23
OrientationDeg,1612046527259,245641637980682,15,4,-23
OrientationDeg,1612046527270,245641648044882,15,4,-23
OrientationDeg,1612046527280,245641658109082,15,4,-23
OrientationDeg,1612046527290,245641668173282,15,4,-23
OrientationDeg,1612046527300,245641678237515,15,4,-23
OrientationDeg,1612046527310,245641688301781,15,4,-23
OrientationDeg,1612046527320,245641698332647,15,4,-23
OrientationDeg,1612046527330,245641708363513,14,4,-23
OrientationDeg,1612046527340,245641718394413,14,4,-23
OrientationDeg,1612046527350,245641728425313,14,4,-23
OrientationDeg,1612046527360,245641738456179,14,4,-23
OrientationDeg,1612046527370,245641748487112,14,4,-23
OrientationDeg,1612046527380,245641758517978,14,4,-23
OrientationDeg,1612046527389,245641768548878,14,4,-24
OrientationDeg,1612046527400,245641778579744,14,4,-24
OrientationDeg,1612046527410,245641788610644,14,4,-24
OrientationDeg,1612046527420,245641798641510,14,4,-24
OrientationDeg,1612046527430,245641808672410,14,4,-24
OrientationDeg,1612046527440,245641818703443,14,4,-24
OrientationDeg,1612046527450,245641828734309,13,4,-24
OrientationDeg,1612046527459,245641838765142,13,4,-24
OrientationDeg,1612046527470,245641848796042,13,4,-24
OrientationDeg,1612046527479,245641858826942,12,4,-24
OrientationDeg,1612046527490,245641868824508,11,4,-24
OrientationDeg,1612046527500,245641878822108,11,4,-24
OrientationDeg,1612046527510,245641888819641,10,4,-24
OrientationDeg,1612046527520,245641898817207,9,4,-24
OrientationDeg,1612046527529,245641908814773,9,4,-24
OrientationDeg,1612046527540,245641918812339,8,4,-25
OrientationDeg,1612046527550,245641928809905,7,4,-25
OrientationDeg,1612046527560,245641938807471,6,4,-25
OrientationDeg,1612046527570,245641948805037,5,4,-25
OrientationDeg,1612046527580,245641958802670,4,4,-25
OrientationDeg,1612046527590,245641968800236,3,4,-25
OrientationDeg,1612046527600,245641978797802,2,4,-25
OrientationDeg,1612046527609,245641988795302,1,4,-25
OrientationDeg,1612046527620,245641998792902,0,3,-25
OrientationDeg,1612046527630,245642008790468,359,3,-25
OrientationDeg,1612046527640,245642018788068,358,3,-25
OrientationDeg,1612046527650,245642028785601,358,3,-26
OrientationDeg,1612046527660,245642038783167,357,3,-26
OrientationDeg,1612046527670,245642048779567,356,2,-26
OrientationDeg,1612046527680,245642058777233,356,2,-26
OrientationDeg,1612046527690,245642068774799,355,2,-27
OrientationDeg,1612046527699,245642078772299,355,2,-27
OrientationDeg,1612046527710,245642088769865,355,1,-27
OrientationDeg,1612046527720,245642098767431,354,1,-27
OrientationDeg,1612046527730,245642108764931,354,1,-28
OrientationDeg,1612046527740,245642118762331,354,0,-28
OrientationDeg,1612046527749,245642128759897,354,0,-28
OrientationDeg,1612046527760,245642138757430,354,0,-28
OrientationDeg,1612046527770,245642148754963,353,0,-29
OrientationDeg,1612046527780,245642158752529,353,0,-29
OrientationDeg,1612046527789,245642168750029,353,0,-29
OrientationDeg,1612046527799,245642178747562,353,0,-29
OrientationDeg,1612046527810,245642188745128,353,0,-29
OrientationDeg,1612046527820,245642198742694,353,0,-29
OrientationDeg,1612046527830,245642208740227,353,0,-30
OrientationDeg,1612046527840,245642218737793,352,0,-30
OrientationDeg,1612046527850,245642228735326,352,0,-30
OrientationDeg,1612046527860,245642238732859,352,0,-30
OrientationDeg,1612046527870,245642248730425,352,0,-30
OrientationDeg,1612046527880,245642258727958,352,0,-30
OrientationDeg,1612046527889,245642268725524,352,0,-30
OrientationDeg,1612046527900,245642278723090,352,0,-30
OrientationDeg,1612046527910,245642288720590,352,0,-30
OrientationDeg,1612046527920,245642298718090,352,0,-30
OrientationDeg,1612046527930,245642308715656,352,0,-30
OrientationDeg,1612046527940,245642318713189,352,0,-30
OrientationDeg,1612046527950,245642328710755,352,0,-30
OrientationDeg,1612046527960,245642338708321,352,0,-30
OrientationDeg,1612046527969,245642348707021,352,0,-30
OrientationDeg,1612046527980,245642358704487,352,0,-30
OrientationDeg,1612046527990,245642368702020,352,0,-30
OrientationDeg,1612046528000,245642378699620,352,0,-30
OrientationDeg,1612046528010,245642388697153,352,0,-30
OrientationDeg,1612046528020,245642398694719,352,0,-30
OrientationDeg,1612046528030,245642408692285,352,0,-30
OrientationDeg,1612046528040,245642418689851,352,0,-30
OrientationDeg,1612046528050,245642428687417,352,0,-30
OrientationDeg,1612046528060,245642438684983,352,0,-30
OrientationDeg,1612046528070,245642448682549,352,0,-30
OrientationDeg,1612046528080,245642458680082,352,0,-30
OrientationDeg,1612046528090,245642468677648,352,0,-30
OrientationDeg,1612046528100,245642478675181,352,0,-30
OrientationDeg,1612046528110,245642488672747,352,0,-30
OrientationDeg,1612046528120,245642498671747,352,0,-30
OrientationDeg,1612046528130,245642508669313,352,0,-30
OrientationDeg,1612046528140,245642518666879,352,0,-30
OrientationDeg,1612046528150,245642528664445,352,0,-30
OrientationDeg,1612046528160,245642538662011,352,0,-30
OrientationDeg,1612046528170,245642548659544,352,-1,-29
OrientationDeg,1612046528180,245642558657110,352,-1,-29
OrientationDeg,1612046528190,245642568654643,352,-1,-29
OrientationDeg,1612046528199,245642578652176,352,-1,-29
OrientationDeg,1612046528210,245642588649809,352,-1,-29
OrientationDeg,1612046528219,245642598647375,352,-1,-29
OrientationDeg,1612046528229,245642608644941,352,-2,-29
OrientationDeg,1612046528240,245642618642474,352,-2,-29
OrientationDeg,1612046528250,245642628640040,352,-2,-29
OrientationDeg,1612046528260,245642638637573,352,-2,-29
OrientationDeg,1612046528270,245642648635106,352,-2,-29
OrientationDeg,1612046528280,245642658632639,352,-2,-29
OrientationDeg,1612046528290,245642668630205,352,-2,-29
OrientationDeg,1612046528300,245642678626671,353,-2,-29
OrientationDeg,1612046528310,245642688624237,353,-2,-29
OrientationDeg,1612046528319,245642698621837,353,-2,-29
OrientationDeg,1612046528330,245642708619370,353,-2,-29
OrientationDeg,1612046528340,245642718616936,353,-2,-29
OrientationDeg,1612046528350,245642728614536,353,-2,-29
OrientationDeg,1612046528360,245642738612102,353,-2,-29
OrientationDeg,1612046528370,245642748609668,353,-2,-29
OrientationDeg,1612046528380,245642758607001,353,-2,-29
OrientationDeg,1612046528390,245642768604567,353,-2,-29
OrientationDeg,1612046528400,245642778602133,353,-2,-29
OrientationDeg,1612046528410,245642788599699,353,-2,-30
OrientationDeg,1612046528420,245642798595799,353,-2,-30
OrientationDeg,1612046528430,245642808593365,353,-2,-30
OrientationDeg,1612046528440,245642818590898,353,-2,-30
OrientationDeg,1612046528450,245642828588464,353,-2,-30
OrientationDeg,1612046528460,245642838586030,353,-2,-30
OrientationDeg,1612046528470,245642848583696,353,-2,-30
OrientationDeg,1612046528480,245642858581196,353,-2,-30
OrientationDeg,1612046528490,245642868578762,353,-2,-30
OrientationDeg,1612046528500,245642878576362,353,-2,-30
OrientationDeg,1612046528510,245642888573895,353,-2,-30
OrientationDeg,1612046528520,245642898571461,353,-2,-30
OrientationDeg,1612046528530,245642908568994,353,-2,-30
OrientationDeg,1612046528540,245642918566560,353,-2,-30
OrientationDeg,1612046528550,245642928564126,353,-2,-30
OrientationDeg,1612046528560,245642938561692,353,-2,-30
OrientationDeg,1612046528570,245642948559258,353,-2,-30
OrientationDeg,1612046528580,245642958556824,353,-2,-30
OrientationDeg,1612046528590,245642968554457,353,-2,-30
OrientationDeg,1612046528600,245642978553057,353,-2,-30
OrientationDeg,1612046528610,245642988550623,353,-2,-30
OrientationDeg,1612046528620,245642998548156,353,-2,-30
OrientationDeg,1612046528630,245643008545722,353,-2,-30
OrientationDeg,1612046528640,245643018543288,353,-2,-30
OrientationDeg,1612046528650,245643028540854,353,-2,-30
OrientationDeg,1612046528659,245643038538420,353,-2,-30
OrientationDeg,1612046528670,245643048535953,353,-2,-30
OrientationDeg,1612046528680,245643058533753,353,-2,-30
OrientationDeg,1612046528690,245643068531286,353,-2,-30
OrientationDeg,1612046528699,245643078528852,353,-2,-30
OrientationDeg,1612046528710,245643088526418,353,-2,-30
OrientationDeg,1612046528720,245643098523984,353,-2,-30
OrientationDeg,1612046528730,245643108521550,353,-2,-30
OrientationDeg,1612046528740,245643118519183,353,-2,-30
OrientationDeg,1612046528749,245643128516749,353,-2,-30
OrientationDeg,1612046528759,245643138514282,353,-2,-30
OrientationDeg,1612046528770,245643148511748,353,-2,-30
OrientationDeg,1612046528780,245643158509281,353,-2,-30
OrientationDeg,1612046528790,245643168506847,353,-2,-30
OrientationDeg,1612046528800,245643178504380,353,-2,-30
OrientationDeg,1612046528810,245643188501946,353,-2,-30
OrientationDeg,1612046528820,245643198499512,353,-2,-30
OrientationDeg,1612046528830,245643208497078,353,-2,-30
OrientationDeg,1612046528840,245643218494644,353,-2,-30
OrientationDeg,1612046528849,245643228492177,353,-2,-30
OrientationDeg,1612046528860,245643238489743,353,-2,-30
OrientationDeg,1612046528870,245643248487276,353,-2,-30
OrientationDeg,1612046528880,245643258484842,353,-2,-30
OrientationDeg,1612046528890,245643268482342,353,-2,-30
OrientationDeg,1612046528900,245643278479908,353,-2,-30
OrientationDeg,1612046528910,245643288477474,353,-2,-30
OrientationDeg,1612046528920,245643298475640,353,-2,-30
OrientationDeg,1612046528930,245643308473206,353,-2,-30
OrientationDeg,1612046528940,245643318470739,353,-2,-30
OrientationDeg,1612046528950,245643328468239,353,-2,-30
OrientationDeg,1612046528960,245643338465772,353,-2,-30
OrientationDeg,1612046528970,245643348463338,353,-2,-30
OrientationDeg,1612046528980,245643358460938,353,-2,-30
OrientationDeg,1612046528990,245643368458504,353,-2,-30
OrientationDeg,1612046528999,245643378456070,353,-2,-30
OrientationDeg,1612046529010,245643388453603,353,-2,-30
OrientationDeg,1612046529020,245643398451169,353,-2,-30
OrientationDeg,1612046529030,245643408448702,353,-2,-30
OrientationDeg,1612046529040,245643418446302,353,-2,-30
OrientationDeg,1612046529050,245643428443868,353,-2,-30
OrientationDeg,1612046529059,245643438441434,353,-2,-30
OrientationDeg,1612046529070,245643448439034,353,-2,-30
OrientationDeg,1612046529080,245643458436600,353,-2,-30
OrientationDeg,1612046529090,245643468434166,353,-2,-30
OrientationDeg,1612046529100,245643478431799,353,-2,-30
OrientationDeg,1612046529110,245643488429999,353,-2,-30
OrientationDeg,1612046529120,245643498427532,353,-2,-30
OrientationDeg,1612046529130,245643508425098,353,-2,-30
OrientationDeg,1612046529140,245643518422664,353,-2,-30
OrientationDeg,1612046529149,245643528420230,353,-2,-30
OrientationDeg,1612046529160,245643538417796,353,-2,-30
OrientationDeg,1612046529170,245643548415362,353,-2,-30
OrientationDeg,1612046529180,245643558412928,353,-2,-30
OrientationDeg,1612046529190,245643568410461,353,-2,-30
OrientationDeg,1612046529200,245643578408027,353,-2,-30
OrientationDeg,1612046529210,245643588405560,353,-2,-30
OrientationDeg,1612046529220,245643598402493,353,-2,-30
OrientationDeg,1612046529230,245643608400059,353,-2,-30
OrientationDeg,1612046529240,245643618397659,353,-2,-30
OrientationDeg,1612046529249,245643628395225,353,-2,-30
OrientationDeg,1612046529260,245643638392791,353,-2,-30
OrientationDeg,1612046529270,245643648390357,353,-2,-30
OrientationDeg,1612046529280,245643658387857,353,-2,-30
OrientationDeg,1612046529289,245643668385423,353,-2,-30
OrientationDeg,1612046529300,245643678382956,353,-2,-30
OrientationDeg,1612046529310,245643688380522,353,-2,-30
OrientationDeg,1612046529320,245643698378088,353,-2,-30
OrientationDeg,1612046529330,245643708375654,352,-2,-30
OrientationDeg,1612046529340,245643718373120,352,-2,-30
OrientationDeg,1612046529350,245643728370653,352,-2,-30
OrientationDeg,1612046529360,245643738368219,352,-2,-30
OrientationDeg,1612046529370,245643748365719,352,-2,-30
OrientationDeg,1612046529380,245643758363319,352,-2,-30
OrientationDeg,1612046529390,245643768360852,352,-2,-30
OrientationDeg,1612046529400,245643778358318,352,-2,-30
OrientationDeg,1612046529410,245643788355251,352,-2,-30
OrientationDeg,1612046529419,245643798352851,352,-2,-30
OrientationDeg,1612046529430,245643808350417,352,-2,-30
OrientationDeg,1612046529440,245643818347950,352,-2,-30
OrientationDeg,1612046529450,245643828345516,352,-2,-30
OrientationDeg,1612046529460,245643838343049,352,-2,-30
OrientationDeg,1612046529470,245643848340615,352,-2,-30
OrientationDeg,1612046529480,245643858338181,352,-2,-30
OrientationDeg,1612046529490,245643868335747,352,-2,-30
OrientationDeg,1612046529499,245643878333313,352,-2,-30
OrientationDeg,1612046529510,245643888330879,352,-2,-30
OrientationDeg,1612046529520,245643898328445,352,-2,-30
OrientationDeg,1612046529530,245643908325978,352,-2,-30
OrientationDeg,1612046529540,245643918323544,352,-2,-30
OrientationDeg,1612046529550,245643928321077,352,-2,-30
OrientationDeg,1612046529560,245643938318643,352,-2,-30
OrientationDeg,1612046529570,245643948316209,352,-2,-30
OrientationDeg,1612046529580,245643958313775,352,-2,-30
OrientationDeg,1612046529590,245643968311341,352,-2,-30
OrientationDeg,1612046529600,245643978308907,352,-2,-30
OrientationDeg,1612046529610,245643988306473,352,-2,-30
OrientationDeg,1612046529620,245643998304006,352,-2,-30
OrientationDeg,1612046529630,245644008301572,352,-2,-30
OrientationDeg,1612046529640,245644018299105,352,-2,-30
OrientationDeg,1612046529650,245644028296671,352,-2,-30
OrientationDeg,1612046529660,245644038294237,352,-2,-30
OrientationDeg,1612046529670,245644048291803,352,-2,-30
OrientationDeg,1612046529680,245644058289336,352,-2,-30
OrientationDeg,1612046529689,245644068286902,352,-2,-30
OrientationDeg,1612046529700,245644078284468,352,-2,-30
OrientationDeg,1612046529710,245644088282001,352,-2,-30
OrientationDeg,1612046529720,245644098279534,352,-2,-30
OrientationDeg,1612046529730,245644108277067,352,-2,-30
OrientationDeg,1612046529740,245644118274633,352,-2,-30
OrientationDeg,1612046529749,245644128272199,352,-2,-30
OrientationDeg,1612046529760,245644138269765,352,-2,-30
OrientationDeg,1612046529770,245644148267331,352,-2,-30
OrientationDeg,1612046529780,245644158264864,352,-2,-30
OrientationDeg,1612046529790,245644168262464,352,-2,-30
OrientationDeg,1612046529800,245644178259997,352,-2,-30
OrientationDeg,1612046529810,245644188257563,352,-2,-30
OrientationDeg,1612046529820,245644198255129,352,-2,-30
OrientationDeg,1612046529830,245644208252695,352,-2,-30
OrientationDeg,1612046529840,245644218250228,352,-2,-30
OrientationDeg,1612046529849,245644228247794,352,-2,-30
OrientationDeg,1612046529860,245644238245360,352,-2,-30
OrientationDeg,1612046529870,245644248242893,352,-2,-30
OrientationDeg,1612046529879,245644258240459,352,-2,-30
OrientationDeg,1612046529890,245644268237992,352,-2,-30
OrientationDeg,1612046529900,245644278235558,352,-2,-30
OrientationDeg,1612046529910,245644288233124,352,-2,-30
OrientationDeg,1612046529920,245644298230690,352,-2,-30
OrientationDeg,1612046529930,245644308228256,352,-2,-30
OrientationDeg,1612046529940,245644318225822,352,-2,-30
OrientationDeg,1612046529950,245644328223388,352,-2,-30
OrientationDeg,1612046529959,245644338220921,352,-2,-30
OrientationDeg,1612046529970,245644348218487,352,-2,-30
OrientationDeg,1612046529980,245644358216020,352,-2,-30
OrientationDeg,1612046529990,245644368213586,352,-2,-30
OrientationDeg,1612046530000,245644378211152,352,-2,-30
OrientationDeg,1612046530010,245644388208718,352,-2,-30
OrientationDeg,1612046530019,245644398206284,352,-2,-30
OrientationDeg,1612046530030,245644408203850,352,-2,-30
OrientationDeg,1612046530040,245644418201416,352,-2,-30
OrientationDeg,1612046530050,245644428198949,352,-2,-30
OrientationDeg,1612046530060,245644438196549,352,-2,-30
OrientationDeg,1612046530070,245644448194082,352,-2,-30
OrientationDeg,1612046530080,245644458191648,352,-2,-30
OrientationDeg,1612046530090,245644468189181,352,-2,-30
OrientationDeg,1612046530100,245644478186747,352,-2,-30
OrientationDeg,1612046530110,245644488184313,352,-2,-30
OrientationDeg,1612046530120,245644498181846,352,-2,-29
OrientationDeg,1612046530130,245644508179412,352,-2,-29
OrientationDeg,1612046530140,245644518176945,352,-2,-29
OrientationDeg,1612046530150,245644528174511,352,-2,-29
OrientationDeg,1612046530160,245644538172077,352,-2,-29
OrientationDeg,1612046530170,245644548169643,352,-2,-29
OrientationDeg,1612046530180,245644558167209,352,-2,-29
OrientationDeg,1612046530190,245644568164775,352,-2,-29
OrientationDeg,1612046530200,245644578162341,352,-2,-29
OrientationDeg,1612046530210,245644588159874,352,-2,-29
OrientationDeg,1612046530220,245644598157440,352,-2,-30
OrientationDeg,1612046530230,245644608154973,352,-2,-30
OrientationDeg,1612046530240,245644618154973,352,-2,-30
OrientationDeg,1612046530250,245644628152539,352,-2,-30
OrientationDeg,1612046530260,245644638150105,352,-2,-30
OrientationDeg,1612046530270,245644648147738,352,-2,-30
OrientationDeg,1612046530280,245644658145304,352,-2,-30
OrientationDeg,1612046530290,245644668142870,352,-2,-29
OrientationDeg,1612046530300,245644678140403,352,-2,-29
OrientationDeg,1612046530310,245644688137969,352,-2,-29
OrientationDeg,1612046530320,245644698135502,352,-2,-29
OrientationDeg,1612046530329,245644708133068,352,-2,-29
OrientationDeg,1612046530340,245644718130634,352,-2,-29
OrientationDeg,1612046530350,245644728128200,352,-2,-29
OrientationDeg,1612046530360,245644738125733,352,-2,-29
OrientationDeg,1612046530369,245644748123299,352,-2,-29
OrientationDeg,1612046530380,245644758120865,352,-2,-29
OrientationDeg,1612046530390,245644768118398,352,-2,-29
OrientationDeg,1612046530400,245644778115964,352,-2,-29
OrientationDeg,1612046530410,245644788113497,352,-2,-29
OrientationDeg,1612046530420,245644798111063,352,-2,-29
OrientationDeg,1612046530430,245644808108629,352,-2,-29
OrientationDeg,1612046530440,245644818106195,352,-2,-29
OrientationDeg,1612046530450,245644828103761,352,-2,-29
OrientationDeg,1612046530460,245644838101327,352,-2,-29
OrientationDeg,1612046530470,245644848098993,352,-2,-29
OrientationDeg,1612046530480,245644858096959,352,-2,-29
OrientationDeg,1612046530490,245644868094525,352,-2,-29
OrientationDeg,1612046530500,245644878092058,352,-2,-29
OrientationDeg,1612046530510,245644888089724,352,-2,-29
OrientationDeg,1612046530520,245644898087290,352,-2,-29
OrientationDeg,1612046530530,245644908084856,352,-2,-29
OrientationDeg,1612046530540,245644918079989,352,-2,-29
OrientationDeg,1612046530550,245644928077522,352,-2,-29
OrientationDeg,1612046530560,245644938075088,352,-2,-29
OrientationDeg,1612046530570,245644948072554,352,-2,-29
OrientationDeg,1612046530580,245644958070120,352,-2,-29
OrientationDeg,1612046530590,245644968067686,352,-2,-29